{
"type": "FeatureCollection",
"name": "test22",
"crs": { "type": "name", "properties": { "name": "urn:ogc:def:crs:OGC:1.3:CRS84" } },
"features": [
{ "type": "Feature", "properties": { "Facility ID": "030084", "City": "CHINLE", "State": "AZ" }, "geometry": null },
{ "type": "Feature", "properties": { "Facility ID": "044022", "City": "CONWAY", "State": "AR" }, "geometry": null },
{ "type": "Feature", "properties": { "Facility ID": "10021F", "City": "Eglin AFB", "State": "FL" }, "geometry": null },
{ "type": "Feature", "properties": { "Facility ID": "170204", "City": "DERBY", "State": "KS" }, "geometry": { "type": "Point", "coordinates": [ -97.244407, 37.582147 ] } },
{ "type": "Feature", "properties": { "Facility ID": "171322", "City": "SYRACUSE", "State": "KS" }, "geometry": null },
{ "type": "Feature", "properties": { "Facility ID": "174020", "City": "OLATHE", "State": "KS" }, "geometry": { "type": "Point", "coordinates": [ -94.768837, 38.885884 ] } },
{ "type": "Feature", "properties": { "Facility ID": "181304", "City": "CADIZ", "State": "KY" }, "geometry": { "type": "Point", "coordinates": [ -87.821288, 36.867247 ] } },
{ "type": "Feature", "properties": { "Facility ID": "190160", "City": "WEST MONROE", "State": "LA" }, "geometry": { "type": "Point", "coordinates": [ -92.156761, 32.513462 ] } },
{ "type": "Feature", "properties": { "Facility ID": "214002", "City": "CAMBRIDGE", "State": "MD" }, "geometry": null },
{ "type": "Feature", "properties": { "Facility ID": "231314", "City": "SANDUSKY", "State": "MI" }, "geometry": { "type": "Point", "coordinates": [ -82.832937, 43.423426 ] } },
{ "type": "Feature", "properties": { "Facility ID": "334045", "City": "ELMIRA", "State": "NY" }, "geometry": null },
{ "type": "Feature", "properties": { "Facility ID": "34011F", "City": "Camp Lejeune", "State": "NC" }, "geometry": { "type": "Point", "coordinates": [ -77.357076, 34.716771 ] } },
{ "type": "Feature", "properties": { "Facility ID": "354004", "City": "FARGO", "State": "ND" }, "geometry": { "type": "Point", "coordinates": [ -96.785691, 46.869348 ] } },
{ "type": "Feature", "properties": { "Facility ID": "370225", "City": "EDMOND", "State": "OK" }, "geometry": { "type": "Point", "coordinates": [ -97.499435, 35.635521 ] } },
{ "type": "Feature", "properties": { "Facility ID": "390093", "City": "CLARION", "State": "PA" }, "geometry": null },
{ "type": "Feature", "properties": { "Facility ID": "390325", "City": "YORK", "State": "PA" }, "geometry": { "type": "Point", "coordinates": [ -76.696813, 39.91669 ] } },
{ "type": "Feature", "properties": { "Facility ID": "403301", "City": "SAN JUAN", "State": "PR" }, "geometry": null },
{ "type": "Feature", "properties": { "Facility ID": "440007", "City": "MANCHESTER", "State": "TN" }, "geometry": { "type": "Point", "coordinates": [ -86.078141, 35.497932 ] } },
{ "type": "Feature", "properties": { "Facility ID": "453301", "City": "CORPUS CHRISTI", "State": "TX" }, "geometry": null },
{ "type": "Feature", "properties": { "Facility ID": "460039", "City": "TREMONTON", "State": "UT" }, "geometry": { "type": "Point", "coordinates": [ -112.181979, 41.723768 ] } },
{ "type": "Feature", "properties": { "Facility ID": "50005F", "City": "Tacoma", "State": "WA" }, "geometry": null },
{ "type": "Feature", "properties": { "Facility ID": "670062", "City": "AUBREY", "State": "TX" }, "geometry": null },
{ "type": "Feature", "properties": { "Facility ID": "210022", "City": "BETHESDA", "State": "MD" }, "geometry": { "type": "Point", "coordinates": [ -77.10922, 38.997251 ] } },
{ "type": "Feature", "properties": { "Facility ID": "054032", "City": "ROSEMEAD", "State": "CA" }, "geometry": { "type": "Point", "coordinates": [ -118.073556, 34.088658 ] } },
{ "type": "Feature", "properties": { "Facility ID": "100106", "City": "PERRY", "State": "FL" }, "geometry": { "type": "Point", "coordinates": [ -83.592009, 30.121128 ] } },
{ "type": "Feature", "properties": { "Facility ID": "010138", "City": "YORK", "State": "AL" }, "geometry": { "type": "Point", "coordinates": [ -88.296081, 32.491825 ] } },
{ "type": "Feature", "properties": { "Facility ID": "214003", "City": "HAGERSTOWN", "State": "MD" }, "geometry": { "type": "Point", "coordinates": [ -77.609245, 39.677869 ] } },
{ "type": "Feature", "properties": { "Facility ID": "310010", "City": "PLAINSBORO", "State": "NJ" }, "geometry": null },
{ "type": "Feature", "properties": { "Facility ID": "140145", "City": "BREESE", "State": "IL" }, "geometry": { "type": "Point", "coordinates": [ -89.524944, 38.625154 ] } },
{ "type": "Feature", "properties": { "Facility ID": "161333", "City": "NEVADA", "State": "IA" }, "geometry": { "type": "Point", "coordinates": [ -93.434902, 42.005334 ] } },
{ "type": "Feature", "properties": { "Facility ID": "104076", "City": "ORLANDO", "State": "FL" }, "geometry": { "type": "Point", "coordinates": [ -81.191544, 28.581858 ] } },
{ "type": "Feature", "properties": { "Facility ID": "271323", "City": "PLAINS", "State": "MT" }, "geometry": { "type": "Point", "coordinates": [ -114.891908, 47.469539 ] } },
{ "type": "Feature", "properties": { "Facility ID": "251307", "City": "MACON", "State": "MS" }, "geometry": null },
{ "type": "Feature", "properties": { "Facility ID": "381318", "City": "HOOD RIVER", "State": "OR" }, "geometry": { "type": "Point", "coordinates": [ -121.523224, 45.704561 ] } },
{ "type": "Feature", "properties": { "Facility ID": "420103", "City": "GREER", "State": "SC" }, "geometry": { "type": "Point", "coordinates": [ -82.217661, 34.86351 ] } },
{ "type": "Feature", "properties": { "Facility ID": "154053", "City": "MUNCIE", "State": "IN" }, "geometry": { "type": "Point", "coordinates": [ -85.414363, 40.197622 ] } },
{ "type": "Feature", "properties": { "Facility ID": "150097", "City": "SHELBYVILLE", "State": "IN" }, "geometry": { "type": "Point", "coordinates": [ -85.78397, 39.560017 ] } },
{ "type": "Feature", "properties": { "Facility ID": "424005", "City": "COLUMBIA", "State": "SC" }, "geometry": { "type": "Point", "coordinates": [ -80.980762, 34.084139 ] } },
{ "type": "Feature", "properties": { "Facility ID": "240075", "City": "BRAINERD", "State": "MN" }, "geometry": { "type": "Point", "coordinates": [ -94.205143, 46.362509 ] } },
{ "type": "Feature", "properties": { "Facility ID": "074014", "City": "NEW CANAAN", "State": "CT" }, "geometry": { "type": "Point", "coordinates": [ -73.468247, 41.16524 ] } },
{ "type": "Feature", "properties": { "Facility ID": "450711", "City": "MCALLEN", "State": "TX" }, "geometry": { "type": "Point", "coordinates": [ -98.224124, 26.185939 ] } },
{ "type": "Feature", "properties": { "Facility ID": "450187", "City": "BRENHAM", "State": "TX" }, "geometry": { "type": "Point", "coordinates": [ -96.398937, 30.145082 ] } },
{ "type": "Feature", "properties": { "Facility ID": "390146", "City": "WARREN", "State": "PA" }, "geometry": null },
{ "type": "Feature", "properties": { "Facility ID": "18003F", "City": "Fort Campbell", "State": "KY" }, "geometry": { "type": "Point", "coordinates": [ -87.448787, 36.637336 ] } },
{ "type": "Feature", "properties": { "Facility ID": "140179", "City": "EVERGREEN PARK", "State": "IL" }, "geometry": { "type": "Point", "coordinates": [ -87.691966, 41.720902 ] } },
{ "type": "Feature", "properties": { "Facility ID": "170012", "City": "SALINA", "State": "KS" }, "geometry": { "type": "Point", "coordinates": [ -97.610525, 38.833271 ] } },
{ "type": "Feature", "properties": { "Facility ID": "194089", "City": "BREAUX BRIDGE", "State": "LA" }, "geometry": null },
{ "type": "Feature", "properties": { "Facility ID": "390111", "City": "PHILADELPHIA", "State": "PA" }, "geometry": null },
{ "type": "Feature", "properties": { "Facility ID": "141328", "City": "ROSICLARE", "State": "IL" }, "geometry": null },
{ "type": "Feature", "properties": { "Facility ID": "051333", "City": "RIDGECREST", "State": "CA" }, "geometry": { "type": "Point", "coordinates": [ -117.669852, 35.640802 ] } },
{ "type": "Feature", "properties": { "Facility ID": "384012", "City": "PORTLAND", "State": "OR" }, "geometry": { "type": "Point", "coordinates": [ -122.783797, 45.506265 ] } },
{ "type": "Feature", "properties": { "Facility ID": "520059", "City": "BURLINGTON", "State": "WI" }, "geometry": { "type": "Point", "coordinates": [ -88.282648, 42.673515 ] } },
{ "type": "Feature", "properties": { "Facility ID": "250128", "City": "BATESVILLE", "State": "MS" }, "geometry": { "type": "Point", "coordinates": [ -89.916488, 34.306319 ] } },
{ "type": "Feature", "properties": { "Facility ID": "400079", "City": "AGUADILLA", "State": "PR" }, "geometry": null },
{ "type": "Feature", "properties": { "Facility ID": "104049", "City": "HIALEAH", "State": "FL" }, "geometry": { "type": "Point", "coordinates": [ -80.322333, 25.860114 ] } },
{ "type": "Feature", "properties": { "Facility ID": "150024", "City": "INDIANAPOLIS", "State": "IN" }, "geometry": { "type": "Point", "coordinates": [ -86.17345, 39.78053 ] } },
{ "type": "Feature", "properties": { "Facility ID": "050126", "City": "VAN NUYS", "State": "CA" }, "geometry": { "type": "Point", "coordinates": [ -118.463271, 34.193917 ] } },
{ "type": "Feature", "properties": { "Facility ID": "511322", "City": "SUMMERSVILLE", "State": "WV" }, "geometry": { "type": "Point", "coordinates": [ -80.831136, 38.291903 ] } },
{ "type": "Feature", "properties": { "Facility ID": "261312", "City": "BETHANY", "State": "MO" }, "geometry": { "type": "Point", "coordinates": [ -94.026145, 40.265292 ] } },
{ "type": "Feature", "properties": { "Facility ID": "140258", "City": "ELK GROVE VILLAGE", "State": "IL" }, "geometry": { "type": "Point", "coordinates": [ -88.014996, 42.003705 ] } },
{ "type": "Feature", "properties": { "Facility ID": "471303", "City": "SAINT JOHNSBURY", "State": "VT" }, "geometry": { "type": "Point", "coordinates": [ -72.009516, 44.445262 ] } },
{ "type": "Feature", "properties": { "Facility ID": "030043", "City": "SIERRA VISTA", "State": "AZ" }, "geometry": { "type": "Point", "coordinates": [ -110.230726, 31.554635 ] } },
{ "type": "Feature", "properties": { "Facility ID": "281316", "City": "RED CLOUD", "State": "NE" }, "geometry": null },
{ "type": "Feature", "properties": { "Facility ID": "171357", "City": "HILLSBORO", "State": "KS" }, "geometry": { "type": "Point", "coordinates": [ -97.187589, 38.361495 ] } },
{ "type": "Feature", "properties": { "Facility ID": "120002", "City": "WAILUKU", "State": "HI" }, "geometry": { "type": "Point", "coordinates": [ -156.488087, 20.884455 ] } },
{ "type": "Feature", "properties": { "Facility ID": "111331", "City": "CAMILLA", "State": "GA" }, "geometry": { "type": "Point", "coordinates": [ -84.205091, 31.229277 ] } },
{ "type": "Feature", "properties": { "Facility ID": "230036", "City": "ALPENA", "State": "MI" }, "geometry": { "type": "Point", "coordinates": [ -83.450672, 45.076857 ] } },
{ "type": "Feature", "properties": { "Facility ID": "230066", "City": "MUSKEGON", "State": "MI" }, "geometry": { "type": "Point", "coordinates": [ -86.243075, 43.221939 ] } },
{ "type": "Feature", "properties": { "Facility ID": "450774", "City": "HOUSTON", "State": "TX" }, "geometry": { "type": "Point", "coordinates": [ -95.444846, 30.018542 ] } },
{ "type": "Feature", "properties": { "Facility ID": "310060", "City": "PHILLIPSBURG", "State": "NJ" }, "geometry": { "type": "Point", "coordinates": [ -75.179608, 40.701628 ] } },
{ "type": "Feature", "properties": { "Facility ID": "400106", "City": "SAN JUAN", "State": "PR" }, "geometry": null },
{ "type": "Feature", "properties": { "Facility ID": "450194", "City": "JACKSONVILLE", "State": "TX" }, "geometry": { "type": "Point", "coordinates": [ -95.270547, 31.961418 ] } },
{ "type": "Feature", "properties": { "Facility ID": "340021", "City": "SHELBY", "State": "NC" }, "geometry": { "type": "Point", "coordinates": [ -81.535343, 35.301837 ] } },
{ "type": "Feature", "properties": { "Facility ID": "061328", "City": "PAGOSA SPRINGS", "State": "CO" }, "geometry": { "type": "Point", "coordinates": [ -107.077219, 37.252776 ] } },
{ "type": "Feature", "properties": { "Facility ID": "390258", "City": "LANGHORNE", "State": "PA" }, "geometry": null },
{ "type": "Feature", "properties": { "Facility ID": "450237", "City": "SAN ANTONIO", "State": "TX" }, "geometry": { "type": "Point", "coordinates": [ -98.591557, 29.512909 ] } },
{ "type": "Feature", "properties": { "Facility ID": "230165", "City": "DETROIT", "State": "MI" }, "geometry": { "type": "Point", "coordinates": [ -82.915008, 42.419011 ] } },
{ "type": "Feature", "properties": { "Facility ID": "020017", "City": "ANCHORAGE", "State": "AK" }, "geometry": { "type": "Point", "coordinates": [ -149.827379, 61.20979 ] } },
{ "type": "Feature", "properties": { "Facility ID": "230142", "City": "WAYNE", "State": "MI" }, "geometry": { "type": "Point", "coordinates": [ -83.365625, 42.274275 ] } },
{ "type": "Feature", "properties": { "Facility ID": "301309", "City": "PETERBOROUGH", "State": "NH" }, "geometry": { "type": "Point", "coordinates": [ -71.937471, 42.893461 ] } },
{ "type": "Feature", "properties": { "Facility ID": "194113", "City": "KENNER", "State": "LA" }, "geometry": { "type": "Point", "coordinates": [ -90.269388, 30.025363 ] } },
{ "type": "Feature", "properties": { "Facility ID": "464014", "City": "OREM", "State": "UT" }, "geometry": { "type": "Point", "coordinates": [ -111.663668, 40.311262 ] } },
{ "type": "Feature", "properties": { "Facility ID": "201303", "City": "LINCOLN", "State": "ME" }, "geometry": { "type": "Point", "coordinates": [ -68.516258, 45.348733 ] } },
{ "type": "Feature", "properties": { "Facility ID": "150004", "City": "HAMMOND", "State": "IN" }, "geometry": { "type": "Point", "coordinates": [ -87.52201, 41.61449 ] } },
{ "type": "Feature", "properties": { "Facility ID": "490120", "City": "CHESAPEAKE", "State": "VA" }, "geometry": { "type": "Point", "coordinates": [ -76.244828, 36.746111 ] } },
{ "type": "Feature", "properties": { "Facility ID": "190270", "City": "SLIDELL", "State": "LA" }, "geometry": { "type": "Point", "coordinates": [ -89.754498, 30.273779 ] } },
{ "type": "Feature", "properties": { "Facility ID": "520103", "City": "MENOMONEE FALLS", "State": "WI" }, "geometry": null },
{ "type": "Feature", "properties": { "Facility ID": "161301", "City": "BELMOND", "State": "IA" }, "geometry": { "type": "Point", "coordinates": [ -93.612855, 42.844988 ] } },
{ "type": "Feature", "properties": { "Facility ID": "264010", "City": "SAINT LOUIS", "State": "MO" }, "geometry": { "type": "Point", "coordinates": [ -90.279326, 38.606032 ] } },
{ "type": "Feature", "properties": { "Facility ID": "193301", "City": "SHREVEPORT", "State": "LA" }, "geometry": { "type": "Point", "coordinates": [ -93.756637, 32.481295 ] } },
{ "type": "Feature", "properties": { "Facility ID": "650003", "City": "DEDEDO", "State": "GU" }, "geometry": null },
{ "type": "Feature", "properties": { "Facility ID": "431338", "City": "GREGORY", "State": "SD" }, "geometry": null },
{ "type": "Feature", "properties": { "Facility ID": "363304", "City": "CLEVELAND", "State": "OH" }, "geometry": { "type": "Point", "coordinates": [ -81.609252, 41.482776 ] } },
{ "type": "Feature", "properties": { "Facility ID": "394038", "City": "DOYLESTOWN", "State": "PA" }, "geometry": { "type": "Point", "coordinates": [ -75.154952, 40.300471 ] } },
{ "type": "Feature", "properties": { "Facility ID": "340143", "City": "HICKORY", "State": "NC" }, "geometry": { "type": "Point", "coordinates": [ -81.264779, 35.711195 ] } },
{ "type": "Feature", "properties": { "Facility ID": "190099", "City": "MARKSVILLE", "State": "LA" }, "geometry": { "type": "Point", "coordinates": [ -92.064433, 31.143127 ] } },
{ "type": "Feature", "properties": { "Facility ID": "223303", "City": "SPRINGFIELD", "State": "MA" }, "geometry": { "type": "Point", "coordinates": [ -72.591568, 42.120558 ] } },
{ "type": "Feature", "properties": { "Facility ID": "390081", "City": "DREXEL HILL", "State": "PA" }, "geometry": { "type": "Point", "coordinates": [ -75.283921, 39.953877 ] } },
{ "type": "Feature", "properties": { "Facility ID": "420067", "City": "BEAUFORT", "State": "SC" }, "geometry": { "type": "Point", "coordinates": [ -80.688546, 32.417244 ] } },
{ "type": "Feature", "properties": { "Facility ID": "050426", "City": "ANAHEIM", "State": "CA" }, "geometry": { "type": "Point", "coordinates": [ -117.995115, 33.824735 ] } },
{ "type": "Feature", "properties": { "Facility ID": "490110", "City": "BLACKSBURG", "State": "VA" }, "geometry": { "type": "Point", "coordinates": [ -80.408612, 37.185621 ] } },
{ "type": "Feature", "properties": { "Facility ID": "371329", "City": "FAIRVIEW", "State": "OK" }, "geometry": { "type": "Point", "coordinates": [ -98.474399, 36.275208 ] } },
{ "type": "Feature", "properties": { "Facility ID": "151326", "City": "CLINTON", "State": "IN" }, "geometry": { "type": "Point", "coordinates": [ -87.398213, 39.652926 ] } },
{ "type": "Feature", "properties": { "Facility ID": "110122", "City": "VALDOSTA", "State": "GA" }, "geometry": { "type": "Point", "coordinates": [ -83.288863, 30.86175 ] } },
{ "type": "Feature", "properties": { "Facility ID": "050099", "City": "UPLAND", "State": "CA" }, "geometry": { "type": "Point", "coordinates": [ -117.636862, 34.101079 ] } },
{ "type": "Feature", "properties": { "Facility ID": "364011", "City": "NORTHFIELD", "State": "OH" }, "geometry": { "type": "Point", "coordinates": [ -81.573483, 41.350974 ] } },
{ "type": "Feature", "properties": { "Facility ID": "454060", "City": "SAN ANTONIO", "State": "TX" }, "geometry": { "type": "Point", "coordinates": [ -98.439387, 29.603377 ] } },
{ "type": "Feature", "properties": { "Facility ID": "390324", "City": "ROYERSFORD", "State": "PA" }, "geometry": { "type": "Point", "coordinates": [ -75.553707, 40.216786 ] } },
{ "type": "Feature", "properties": { "Facility ID": "170049", "City": "OLATHE", "State": "KS" }, "geometry": { "type": "Point", "coordinates": [ -94.823673, 38.854524 ] } },
{ "type": "Feature", "properties": { "Facility ID": "341323", "City": "LINVILLE", "State": "NC" }, "geometry": { "type": "Point", "coordinates": [ -81.885678, 36.06748 ] } },
{ "type": "Feature", "properties": { "Facility ID": "330065", "City": "NIAGARA FALLS", "State": "NY" }, "geometry": { "type": "Point", "coordinates": [ -79.050429, 43.093433 ] } },
{ "type": "Feature", "properties": { "Facility ID": "234011", "City": "FERNDALE", "State": "MI" }, "geometry": { "type": "Point", "coordinates": [ -83.164677, 42.445857 ] } },
{ "type": "Feature", "properties": { "Facility ID": "281303", "City": "LYNCH", "State": "NE" }, "geometry": null },
{ "type": "Feature", "properties": { "Facility ID": "424007", "City": "TRAVELERS REST", "State": "SC" }, "geometry": null },
{ "type": "Feature", "properties": { "Facility ID": "131310", "City": "JEROME", "State": "ID" }, "geometry": { "type": "Point", "coordinates": [ -114.51849, 42.730293 ] } },
{ "type": "Feature", "properties": { "Facility ID": "100028", "City": "TITUSVILLE", "State": "FL" }, "geometry": { "type": "Point", "coordinates": [ -80.824943, 28.629068 ] } },
{ "type": "Feature", "properties": { "Facility ID": "670124", "City": "HORIZON CITY", "State": "TX" }, "geometry": { "type": "Point", "coordinates": [ -106.207348, 31.682723 ] } },
{ "type": "Feature", "properties": { "Facility ID": "420091", "City": "FLORENCE", "State": "SC" }, "geometry": { "type": "Point", "coordinates": [ -79.754236, 34.158829 ] } },
{ "type": "Feature", "properties": { "Facility ID": "100134", "City": "MACCLENNY", "State": "FL" }, "geometry": { "type": "Point", "coordinates": [ -82.11955, 30.28555 ] } },
{ "type": "Feature", "properties": { "Facility ID": "281350", "City": "TECUMSEH", "State": "NE" }, "geometry": { "type": "Point", "coordinates": [ -96.197342, 40.379192 ] } },
{ "type": "Feature", "properties": { "Facility ID": "440046", "City": "DICKSON", "State": "TN" }, "geometry": { "type": "Point", "coordinates": [ -87.374808, 36.07212 ] } },
{ "type": "Feature", "properties": { "Facility ID": "351316", "City": "ROLLA", "State": "ND" }, "geometry": { "type": "Point", "coordinates": [ -99.615515, 48.861562 ] } },
{ "type": "Feature", "properties": { "Facility ID": "370013", "City": "OKLAHOMA CITY", "State": "OK" }, "geometry": { "type": "Point", "coordinates": [ -97.599625, 35.609026 ] } },
{ "type": "Feature", "properties": { "Facility ID": "050071", "City": "SANTA CLARA", "State": "CA" }, "geometry": { "type": "Point", "coordinates": [ -121.995767, 37.335456 ] } },
{ "type": "Feature", "properties": { "Facility ID": "051332", "City": "SAN ANDREAS", "State": "CA" }, "geometry": { "type": "Point", "coordinates": [ -120.670661, 38.190973 ] } },
{ "type": "Feature", "properties": { "Facility ID": "390183", "City": "COALDALE", "State": "PA" }, "geometry": { "type": "Point", "coordinates": [ -75.914152, 40.821619 ] } },
{ "type": "Feature", "properties": { "Facility ID": "104071", "City": "OCALA", "State": "FL" }, "geometry": { "type": "Point", "coordinates": [ -82.168972, 29.155476 ] } },
{ "type": "Feature", "properties": { "Facility ID": "040088", "City": "EL DORADO", "State": "AR" }, "geometry": { "type": "Point", "coordinates": [ -92.67103, 33.218378 ] } },
{ "type": "Feature", "properties": { "Facility ID": "240115", "City": "COON RAPIDS", "State": "MN" }, "geometry": { "type": "Point", "coordinates": [ -93.368221, 45.183842 ] } },
{ "type": "Feature", "properties": { "Facility ID": "340141", "City": "WILMINGTON", "State": "NC" }, "geometry": { "type": "Point", "coordinates": [ -77.924182, 34.206183 ] } },
{ "type": "Feature", "properties": { "Facility ID": "180087", "City": "CAMPBELLSVILLE", "State": "KY" }, "geometry": { "type": "Point", "coordinates": [ -85.339179, 37.366216 ] } },
{ "type": "Feature", "properties": { "Facility ID": "100107", "City": "LEHIGH ACRES", "State": "FL" }, "geometry": { "type": "Point", "coordinates": [ -81.658427, 26.614318 ] } },
{ "type": "Feature", "properties": { "Facility ID": "171375", "City": "BELOIT", "State": "KS" }, "geometry": { "type": "Point", "coordinates": [ -98.114235, 39.466499 ] } },
{ "type": "Feature", "properties": { "Facility ID": "360156", "City": "FREMONT", "State": "OH" }, "geometry": { "type": "Point", "coordinates": [ -83.135219, 41.339982 ] } },
{ "type": "Feature", "properties": { "Facility ID": "490017", "City": "PORTSMOUTH", "State": "VA" }, "geometry": { "type": "Point", "coordinates": [ -76.348365, 36.836211 ] } },
{ "type": "Feature", "properties": { "Facility ID": "140125", "City": "GRANITE CITY", "State": "IL" }, "geometry": { "type": "Point", "coordinates": [ -90.144958, 38.700891 ] } },
{ "type": "Feature", "properties": { "Facility ID": "381308", "City": "DALLAS", "State": "OR" }, "geometry": { "type": "Point", "coordinates": [ -123.310383, 44.919404 ] } },
{ "type": "Feature", "properties": { "Facility ID": "380018", "City": "MEDFORD", "State": "OR" }, "geometry": { "type": "Point", "coordinates": [ -122.830443, 42.316483 ] } },
{ "type": "Feature", "properties": { "Facility ID": "270004", "City": "BILLINGS", "State": "MT" }, "geometry": { "type": "Point", "coordinates": [ -108.51415, 45.790452 ] } },
{ "type": "Feature", "properties": { "Facility ID": "250081", "City": "MERIDIAN", "State": "MS" }, "geometry": { "type": "Point", "coordinates": [ -88.699315, 32.36779 ] } },
{ "type": "Feature", "properties": { "Facility ID": "050568", "City": "MADERA", "State": "CA" }, "geometry": { "type": "Point", "coordinates": [ -120.045467, 36.945427 ] } },
{ "type": "Feature", "properties": { "Facility ID": "171385", "City": "BURLINGTON", "State": "KS" }, "geometry": { "type": "Point", "coordinates": [ -95.738569, 38.201677 ] } },
{ "type": "Feature", "properties": { "Facility ID": "241330", "City": "MELROSE", "State": "MN" }, "geometry": { "type": "Point", "coordinates": [ -94.823435, 45.674916 ] } },
{ "type": "Feature", "properties": { "Facility ID": "240006", "City": "ROCHESTER", "State": "MN" }, "geometry": { "type": "Point", "coordinates": [ -92.439958, 44.020994 ] } },
{ "type": "Feature", "properties": { "Facility ID": "241309", "City": "SANDSTONE", "State": "MN" }, "geometry": { "type": "Point", "coordinates": [ -92.882967, 46.118408 ] } },
{ "type": "Feature", "properties": { "Facility ID": "390160", "City": "CANONSBURG", "State": "PA" }, "geometry": { "type": "Point", "coordinates": [ -80.190434, 40.248477 ] } },
{ "type": "Feature", "properties": { "Facility ID": "110075", "City": "STATESBORO", "State": "GA" }, "geometry": { "type": "Point", "coordinates": [ -81.76865, 32.415171 ] } },
{ "type": "Feature", "properties": { "Facility ID": "100254", "City": "TALLAHASSEE", "State": "FL" }, "geometry": { "type": "Point", "coordinates": [ -84.230728, 30.475376 ] } },
{ "type": "Feature", "properties": { "Facility ID": "190046", "City": "NEW ORLEANS", "State": "LA" }, "geometry": { "type": "Point", "coordinates": [ -90.092915, 29.925391 ] } },
{ "type": "Feature", "properties": { "Facility ID": "050396", "City": "SANTA BARBARA", "State": "CA" }, "geometry": { "type": "Point", "coordinates": [ -119.723077, 34.429483 ] } },
{ "type": "Feature", "properties": { "Facility ID": "244017", "City": "ROCHESTER", "State": "MN" }, "geometry": { "type": "Point", "coordinates": [ -92.456949, 43.973447 ] } },
{ "type": "Feature", "properties": { "Facility ID": "521350", "City": "ANTIGO", "State": "WI" }, "geometry": { "type": "Point", "coordinates": [ -89.140292, 45.140319 ] } },
{ "type": "Feature", "properties": { "Facility ID": "344028", "City": "GARNER", "State": "NC" }, "geometry": { "type": "Point", "coordinates": [ -78.560684, 35.680334 ] } },
{ "type": "Feature", "properties": { "Facility ID": "390307", "City": "TRANSFER", "State": "PA" }, "geometry": { "type": "Point", "coordinates": [ -80.417855, 41.330051 ] } },
{ "type": "Feature", "properties": { "Facility ID": "040041", "City": "RUSSELLVILLE", "State": "AR" }, "geometry": { "type": "Point", "coordinates": [ -93.149908, 35.28286 ] } },
{ "type": "Feature", "properties": { "Facility ID": "241376", "City": "GLENWOOD", "State": "MN" }, "geometry": { "type": "Point", "coordinates": [ -95.38987, 45.646757 ] } },
{ "type": "Feature", "properties": { "Facility ID": "100213", "City": "BRADENTON", "State": "FL" }, "geometry": { "type": "Point", "coordinates": [ -82.620468, 27.482176 ] } },
{ "type": "Feature", "properties": { "Facility ID": "010001", "City": "DOTHAN", "State": "AL" }, "geometry": { "type": "Point", "coordinates": [ -85.361725, 31.214058 ] } },
{ "type": "Feature", "properties": { "Facility ID": "390076", "City": "COATESVILLE", "State": "PA" }, "geometry": { "type": "Point", "coordinates": [ -75.790263, 40.009586 ] } },
{ "type": "Feature", "properties": { "Facility ID": "114012", "City": "SMYRNA", "State": "GA" }, "geometry": { "type": "Point", "coordinates": [ -84.511891, 33.853995 ] } },
{ "type": "Feature", "properties": { "Facility ID": "230121", "City": "OWOSSO", "State": "MI" }, "geometry": { "type": "Point", "coordinates": [ -84.182076, 43.005075 ] } },
{ "type": "Feature", "properties": { "Facility ID": "451371", "City": "LULING", "State": "TX" }, "geometry": { "type": "Point", "coordinates": [ -97.654254, 29.67253 ] } },
{ "type": "Feature", "properties": { "Facility ID": "070004", "City": "SHARON", "State": "CT" }, "geometry": { "type": "Point", "coordinates": [ -73.481572, 41.879662 ] } },
{ "type": "Feature", "properties": { "Facility ID": "360123", "City": "WESTLAKE", "State": "OH" }, "geometry": { "type": "Point", "coordinates": [ -81.940704, 41.435854 ] } },
{ "type": "Feature", "properties": { "Facility ID": "050714", "City": "SANTA CRUZ", "State": "CA" }, "geometry": { "type": "Point", "coordinates": [ -121.97818, 36.987865 ] } },
{ "type": "Feature", "properties": { "Facility ID": "501339", "City": "COUPEVILLE", "State": "WA" }, "geometry": { "type": "Point", "coordinates": [ -122.686122, 48.21424 ] } },
{ "type": "Feature", "properties": { "Facility ID": "454050", "City": "GREENVILLE", "State": "TX" }, "geometry": null },
{ "type": "Feature", "properties": { "Facility ID": "054131", "City": "CONCORD", "State": "CA" }, "geometry": { "type": "Point", "coordinates": [ -122.038347, 37.985331 ] } },
{ "type": "Feature", "properties": { "Facility ID": "334026", "City": "AMITYVILLE", "State": "NY" }, "geometry": { "type": "Point", "coordinates": [ -73.418446, 40.684765 ] } },
{ "type": "Feature", "properties": { "Facility ID": "490059", "City": "RICHMOND", "State": "VA" }, "geometry": { "type": "Point", "coordinates": [ -77.513262, 37.584405 ] } },
{ "type": "Feature", "properties": { "Facility ID": "171352", "City": "OBERLIN", "State": "KS" }, "geometry": { "type": "Point", "coordinates": [ -100.53925, 39.816212 ] } },
{ "type": "Feature", "properties": { "Facility ID": "140084", "City": "WAUKEGAN", "State": "IL" }, "geometry": { "type": "Point", "coordinates": [ -87.830964, 42.378264 ] } },
{ "type": "Feature", "properties": { "Facility ID": "184014", "City": "HOPKINSVILLE", "State": "KY" }, "geometry": { "type": "Point", "coordinates": [ -87.469309, 36.738035 ] } },
{ "type": "Feature", "properties": { "Facility ID": "184004", "City": "LEXINGTON", "State": "KY" }, "geometry": { "type": "Point", "coordinates": [ -84.497495, 38.084993 ] } },
{ "type": "Feature", "properties": { "Facility ID": "501302", "City": "DAYTON", "State": "WA" }, "geometry": { "type": "Point", "coordinates": [ -117.968872, 46.312564 ] } },
{ "type": "Feature", "properties": { "Facility ID": "520096", "City": "RACINE", "State": "WI" }, "geometry": { "type": "Point", "coordinates": [ -87.825173, 42.733346 ] } },
{ "type": "Feature", "properties": { "Facility ID": "014000", "City": "BIRMINGHAM", "State": "AL" }, "geometry": { "type": "Point", "coordinates": [ -86.730597, 33.549279 ] } },
{ "type": "Feature", "properties": { "Facility ID": "151315", "City": "ANGOLA", "State": "IN" }, "geometry": { "type": "Point", "coordinates": [ -84.99552, 41.634883 ] } },
{ "type": "Feature", "properties": { "Facility ID": "230002", "City": "LIVONIA", "State": "MI" }, "geometry": { "type": "Point", "coordinates": [ -83.404577, 42.39657 ] } },
{ "type": "Feature", "properties": { "Facility ID": "151320", "City": "PORTLAND", "State": "IN" }, "geometry": { "type": "Point", "coordinates": [ -84.984105, 40.439366 ] } },
{ "type": "Feature", "properties": { "Facility ID": "490115", "City": "GALAX", "State": "VA" }, "geometry": { "type": "Point", "coordinates": [ -80.923814, 36.671813 ] } },
{ "type": "Feature", "properties": { "Facility ID": "110130", "City": "OCILLA", "State": "GA" }, "geometry": { "type": "Point", "coordinates": [ -83.250331, 31.602797 ] } },
{ "type": "Feature", "properties": { "Facility ID": "330080", "City": "BRONX", "State": "NY" }, "geometry": { "type": "Point", "coordinates": [ -73.924072, 40.817681 ] } },
{ "type": "Feature", "properties": { "Facility ID": "161354", "City": "IDA GROVE", "State": "IA" }, "geometry": { "type": "Point", "coordinates": [ -95.45891, 42.339303 ] } },
{ "type": "Feature", "properties": { "Facility ID": "050441", "City": "STANFORD", "State": "CA" }, "geometry": { "type": "Point", "coordinates": [ -122.176664, 37.433138 ] } },
{ "type": "Feature", "properties": { "Facility ID": "420057", "City": "DARLINGTON", "State": "SC" }, "geometry": { "type": "Point", "coordinates": [ -79.838253, 34.312988 ] } },
{ "type": "Feature", "properties": { "Facility ID": "050104", "City": "LYNWOOD", "State": "CA" }, "geometry": { "type": "Point", "coordinates": [ -118.203834, 33.931016 ] } },
{ "type": "Feature", "properties": { "Facility ID": "400123", "City": "MAYAGUEZ", "State": "PR" }, "geometry": null },
{ "type": "Feature", "properties": { "Facility ID": "220119", "City": "BOSTON", "State": "MA" }, "geometry": { "type": "Point", "coordinates": [ -71.127203, 42.300886 ] } },
{ "type": "Feature", "properties": { "Facility ID": "230269", "City": "TROY", "State": "MI" }, "geometry": null },
{ "type": "Feature", "properties": { "Facility ID": "174021", "City": "TOPEKA", "State": "KS" }, "geometry": { "type": "Point", "coordinates": [ -95.693113, 39.041332 ] } },
{ "type": "Feature", "properties": { "Facility ID": "364048", "City": "DAYTON", "State": "OH" }, "geometry": null },
{ "type": "Feature", "properties": { "Facility ID": "120026", "City": "AIEA", "State": "HI" }, "geometry": { "type": "Point", "coordinates": [ -157.937675, 21.383988 ] } },
{ "type": "Feature", "properties": { "Facility ID": "194025", "City": "PINEVILLE", "State": "LA" }, "geometry": { "type": "Point", "coordinates": [ -92.438506, 31.325176 ] } },
{ "type": "Feature", "properties": { "Facility ID": "391315", "City": "SAINT MARYS", "State": "PA" }, "geometry": { "type": "Point", "coordinates": [ -78.576794, 41.426857 ] } },
{ "type": "Feature", "properties": { "Facility ID": "360064", "City": "YOUNGSTOWN", "State": "OH" }, "geometry": { "type": "Point", "coordinates": [ -80.65571, 41.114321 ] } },
{ "type": "Feature", "properties": { "Facility ID": "494010", "City": "FALLS CHURCH", "State": "VA" }, "geometry": { "type": "Point", "coordinates": [ -77.225633, 38.857055 ] } },
{ "type": "Feature", "properties": { "Facility ID": "170176", "City": "OVERLAND PARK", "State": "KS" }, "geometry": { "type": "Point", "coordinates": [ -94.723726, 38.937613 ] } },
{ "type": "Feature", "properties": { "Facility ID": "330106", "City": "MANHASSET", "State": "NY" }, "geometry": { "type": "Point", "coordinates": [ -73.703029, 40.779269 ] } },
{ "type": "Feature", "properties": { "Facility ID": "050231", "City": "POMONA", "State": "CA" }, "geometry": { "type": "Point", "coordinates": [ -117.752329, 34.077639 ] } },
{ "type": "Feature", "properties": { "Facility ID": "100284", "City": "MIAMI", "State": "FL" }, "geometry": { "type": "Point", "coordinates": [ -80.317224, 25.74804 ] } },
{ "type": "Feature", "properties": { "Facility ID": "030115", "City": "PHOENIX", "State": "AZ" }, "geometry": { "type": "Point", "coordinates": [ -112.257936, 33.479558 ] } },
{ "type": "Feature", "properties": { "Facility ID": "364049", "City": "DUBLIN", "State": "OH" }, "geometry": { "type": "Point", "coordinates": [ -83.169212, 40.104146 ] } },
{ "type": "Feature", "properties": { "Facility ID": "123300", "City": "HONOLULU", "State": "HI" }, "geometry": { "type": "Point", "coordinates": [ -157.834246, 21.300396 ] } },
{ "type": "Feature", "properties": { "Facility ID": "390204", "City": "PHILADELPHIA", "State": "PA" }, "geometry": { "type": "Point", "coordinates": [ -75.043387, 40.058529 ] } },
{ "type": "Feature", "properties": { "Facility ID": "453313", "City": "EL PASO", "State": "TX" }, "geometry": { "type": "Point", "coordinates": [ -106.4342, 31.770655 ] } },
{ "type": "Feature", "properties": { "Facility ID": "050586", "City": "CHINO", "State": "CA" }, "geometry": { "type": "Point", "coordinates": [ -117.685988, 34.026351 ] } },
{ "type": "Feature", "properties": { "Facility ID": "391307", "City": "TYRONE", "State": "PA" }, "geometry": { "type": "Point", "coordinates": [ -78.252302, 40.674843 ] } },
{ "type": "Feature", "properties": { "Facility ID": "111319", "City": "JACKSON", "State": "GA" }, "geometry": { "type": "Point", "coordinates": [ -83.977823, 33.303085 ] } },
{ "type": "Feature", "properties": { "Facility ID": "230071", "City": "SOUTHFIELD", "State": "MI" }, "geometry": { "type": "Point", "coordinates": [ -83.260394, 42.464332 ] } },
{ "type": "Feature", "properties": { "Facility ID": "241344", "City": "ROSEAU", "State": "MN" }, "geometry": { "type": "Point", "coordinates": [ -95.759947, 48.839822 ] } },
{ "type": "Feature", "properties": { "Facility ID": "050767", "City": "VACAVILLE", "State": "CA" }, "geometry": { "type": "Point", "coordinates": [ -121.936776, 38.390073 ] } },
{ "type": "Feature", "properties": { "Facility ID": "291313", "City": "FALLON", "State": "NV" }, "geometry": { "type": "Point", "coordinates": [ -118.76518, 39.474876 ] } },
{ "type": "Feature", "properties": { "Facility ID": "061343", "City": "CHEYENNE WELLS", "State": "CO" }, "geometry": { "type": "Point", "coordinates": [ -102.355583, 38.825887 ] } },
{ "type": "Feature", "properties": { "Facility ID": "444019", "City": "CLARKSVILLE", "State": "TN" }, "geometry": { "type": "Point", "coordinates": [ -87.272442, 36.576173 ] } },
{ "type": "Feature", "properties": { "Facility ID": "310112", "City": "HOLMDEL", "State": "NJ" }, "geometry": { "type": "Point", "coordinates": [ -74.193354, 40.404203 ] } },
{ "type": "Feature", "properties": { "Facility ID": "101307", "City": "BONIFAY", "State": "FL" }, "geometry": { "type": "Point", "coordinates": [ -85.682474, 30.76059 ] } },
{ "type": "Feature", "properties": { "Facility ID": "220016", "City": "GREENFIELD", "State": "MA" }, "geometry": { "type": "Point", "coordinates": [ -72.591287, 42.595606 ] } },
{ "type": "Feature", "properties": { "Facility ID": "200021", "City": "BRUNSWICK", "State": "ME" }, "geometry": { "type": "Point", "coordinates": [ -69.892006, 43.905661 ] } },
{ "type": "Feature", "properties": { "Facility ID": "284009", "City": "OMAHA", "State": "NE" }, "geometry": { "type": "Point", "coordinates": [ -95.974516, 41.245156 ] } },
{ "type": "Feature", "properties": { "Facility ID": "154064", "City": "INDIANAPOLIS", "State": "IN" }, "geometry": { "type": "Point", "coordinates": [ -86.27268, 39.778002 ] } },
{ "type": "Feature", "properties": { "Facility ID": "520136", "City": "MILWAUKEE", "State": "WI" }, "geometry": { "type": "Point", "coordinates": [ -87.9761, 43.073465 ] } },
{ "type": "Feature", "properties": { "Facility ID": "141323", "City": "METROPOLIS", "State": "IL" }, "geometry": { "type": "Point", "coordinates": [ -88.739578, 37.166836 ] } },
{ "type": "Feature", "properties": { "Facility ID": "021310", "City": "KOTZEBUE", "State": "AK" }, "geometry": null },
{ "type": "Feature", "properties": { "Facility ID": "194105", "City": "BATON ROUGE", "State": "LA" }, "geometry": { "type": "Point", "coordinates": [ -91.078131, 30.427958 ] } },
{ "type": "Feature", "properties": { "Facility ID": "524025", "City": "FOND DU LAC", "State": "WI" }, "geometry": { "type": "Point", "coordinates": [ -88.428689, 43.775806 ] } },
{ "type": "Feature", "properties": { "Facility ID": "521313", "City": "TOMAHAWK", "State": "WI" }, "geometry": { "type": "Point", "coordinates": [ -89.733596, 45.489006 ] } },
{ "type": "Feature", "properties": { "Facility ID": "431300", "City": "MADISON", "State": "SD" }, "geometry": { "type": "Point", "coordinates": [ -97.119752, 43.993021 ] } },
{ "type": "Feature", "properties": { "Facility ID": "450465", "City": "BAY CITY", "State": "TX" }, "geometry": { "type": "Point", "coordinates": [ -95.99129, 28.982805 ] } },
{ "type": "Feature", "properties": { "Facility ID": "440187", "City": "LIVINGSTON", "State": "TN" }, "geometry": { "type": "Point", "coordinates": [ -85.328097, 36.384695 ] } },
{ "type": "Feature", "properties": { "Facility ID": "060004", "City": "BRIGHTON", "State": "CO" }, "geometry": { "type": "Point", "coordinates": [ -104.770924, 39.965441 ] } },
{ "type": "Feature", "properties": { "Facility ID": "060131", "City": "GREELEY", "State": "CO" }, "geometry": { "type": "Point", "coordinates": [ -104.789043, 40.390073 ] } },
{ "type": "Feature", "properties": { "Facility ID": "400004", "City": "SAN JUAN", "State": "PR" }, "geometry": null },
{ "type": "Feature", "properties": { "Facility ID": "140068", "City": "CHICAGO", "State": "IL" }, "geometry": { "type": "Point", "coordinates": [ -87.624734, 41.692562 ] } },
{ "type": "Feature", "properties": { "Facility ID": "180044", "City": "PIKEVILLE", "State": "KY" }, "geometry": { "type": "Point", "coordinates": [ -82.52395, 37.47251 ] } },
{ "type": "Feature", "properties": { "Facility ID": "040004", "City": "FAYETTEVILLE", "State": "AR" }, "geometry": { "type": "Point", "coordinates": [ -94.157862, 36.110984 ] } },
{ "type": "Feature", "properties": { "Facility ID": "041317", "City": "FORDYCE", "State": "AR" }, "geometry": { "type": "Point", "coordinates": [ -92.425058, 33.811158 ] } },
{ "type": "Feature", "properties": { "Facility ID": "220073", "City": "TAUNTON", "State": "MA" }, "geometry": { "type": "Point", "coordinates": [ -71.09435, 41.905583 ] } },
{ "type": "Feature", "properties": { "Facility ID": "250168", "City": "GRENADA", "State": "MS" }, "geometry": { "type": "Point", "coordinates": [ -89.817532, 33.763307 ] } },
{ "type": "Feature", "properties": { "Facility ID": "110040", "City": "COMMERCE", "State": "GA" }, "geometry": { "type": "Point", "coordinates": [ -83.469116, 34.218475 ] } },
{ "type": "Feature", "properties": { "Facility ID": "381303", "City": "SEASIDE", "State": "OR" }, "geometry": { "type": "Point", "coordinates": [ -123.914805, 45.989367 ] } },
{ "type": "Feature", "properties": { "Facility ID": "440102", "City": "FAYETTEVILLE", "State": "TN" }, "geometry": { "type": "Point", "coordinates": [ -86.557341, 35.149005 ] } },
{ "type": "Feature", "properties": { "Facility ID": "271309", "City": "TERRY", "State": "MT" }, "geometry": { "type": "Point", "coordinates": [ -105.315997, 46.791506 ] } },
{ "type": "Feature", "properties": { "Facility ID": "390041", "City": "UNIONTOWN", "State": "PA" }, "geometry": { "type": "Point", "coordinates": [ -79.737619, 39.901996 ] } },
{ "type": "Feature", "properties": { "Facility ID": "150162", "City": "INDIANAPOLIS", "State": "IN" }, "geometry": { "type": "Point", "coordinates": [ -86.082674, 39.648365 ] } },
{ "type": "Feature", "properties": { "Facility ID": "251324", "City": "TYLERTOWN", "State": "MS" }, "geometry": { "type": "Point", "coordinates": [ -90.155618, 31.119583 ] } },
{ "type": "Feature", "properties": { "Facility ID": "450578", "City": "CANADIAN", "State": "TX" }, "geometry": { "type": "Point", "coordinates": [ -100.387399, 35.903792 ] } },
{ "type": "Feature", "properties": { "Facility ID": "374001", "City": "FORT SUPPLY", "State": "OK" }, "geometry": null },
{ "type": "Feature", "properties": { "Facility ID": "241326", "City": "LONG PRAIRIE", "State": "MN" }, "geometry": null },
{ "type": "Feature", "properties": { "Facility ID": "330208", "City": "YONKERS", "State": "NY" }, "geometry": { "type": "Point", "coordinates": [ -73.885107, 40.96784 ] } },
{ "type": "Feature", "properties": { "Facility ID": "231309", "City": "ONTONAGON", "State": "MI" }, "geometry": { "type": "Point", "coordinates": [ -89.302976, 46.865635 ] } },
{ "type": "Feature", "properties": { "Facility ID": "670077", "City": "HOUSTON", "State": "TX" }, "geometry": { "type": "Point", "coordinates": [ -95.69724, 29.785531 ] } },
{ "type": "Feature", "properties": { "Facility ID": "511301", "City": "WEBSTER SPRINGS", "State": "WV" }, "geometry": { "type": "Point", "coordinates": [ -80.409811, 38.481868 ] } },
{ "type": "Feature", "properties": { "Facility ID": "231323", "City": "REED CITY", "State": "MI" }, "geometry": null },
{ "type": "Feature", "properties": { "Facility ID": "281336", "City": "YORK", "State": "NE" }, "geometry": null },
{ "type": "Feature", "properties": { "Facility ID": "191318", "City": "FERRIDAY", "State": "LA" }, "geometry": null },
{ "type": "Feature", "properties": { "Facility ID": "360082", "City": "EUCLID", "State": "OH" }, "geometry": { "type": "Point", "coordinates": [ -81.547421, 41.596734 ] } },
{ "type": "Feature", "properties": { "Facility ID": "144028", "City": "HINES", "State": "IL" }, "geometry": { "type": "Point", "coordinates": [ -87.833909, 41.877233 ] } },
{ "type": "Feature", "properties": { "Facility ID": "501311", "City": "RITZVILLE", "State": "WA" }, "geometry": { "type": "Point", "coordinates": [ -118.372258, 47.120959 ] } },
{ "type": "Feature", "properties": { "Facility ID": "264007", "City": "SAINT JOSEPH", "State": "MO" }, "geometry": { "type": "Point", "coordinates": [ -94.807751, 39.776936 ] } },
{ "type": "Feature", "properties": { "Facility ID": "171342", "City": "LA CROSSE", "State": "KS" }, "geometry": { "type": "Point", "coordinates": [ -99.316572, 38.530597 ] } },
{ "type": "Feature", "properties": { "Facility ID": "254008", "City": "PURVIS", "State": "MS" }, "geometry": { "type": "Point", "coordinates": [ -89.423942, 31.166355 ] } },
{ "type": "Feature", "properties": { "Facility ID": "340187", "City": "MOCKSVILLE", "State": "NC" }, "geometry": { "type": "Point", "coordinates": [ -80.570097, 35.90001 ] } },
{ "type": "Feature", "properties": { "Facility ID": "360013", "City": "SIDNEY", "State": "OH" }, "geometry": { "type": "Point", "coordinates": [ -84.169035, 40.287932 ] } },
{ "type": "Feature", "properties": { "Facility ID": "531303", "City": "NEWCASTLE", "State": "WY" }, "geometry": { "type": "Point", "coordinates": [ -104.188756, 43.848747 ] } },
{ "type": "Feature", "properties": { "Facility ID": "160080", "City": "CLINTON", "State": "IA" }, "geometry": { "type": "Point", "coordinates": [ -90.188155, 41.860543 ] } },
{ "type": "Feature", "properties": { "Facility ID": "330406", "City": "SCHENECTADY", "State": "NY" }, "geometry": { "type": "Point", "coordinates": [ -73.91386, 42.822229 ] } },
{ "type": "Feature", "properties": { "Facility ID": "340097", "City": "ELKIN", "State": "NC" }, "geometry": { "type": "Point", "coordinates": [ -80.835793, 36.266391 ] } },
{ "type": "Feature", "properties": { "Facility ID": "100316", "City": "PALM BAY", "State": "FL" }, "geometry": { "type": "Point", "coordinates": [ -80.61208, 27.99833 ] } },
{ "type": "Feature", "properties": { "Facility ID": "241359", "City": "MARSHALL", "State": "MN" }, "geometry": { "type": "Point", "coordinates": [ -95.776185, 44.447634 ] } },
{ "type": "Feature", "properties": { "Facility ID": "310039", "City": "PERTH AMBOY", "State": "NJ" }, "geometry": { "type": "Point", "coordinates": [ -74.28075, 40.518346 ] } },
{ "type": "Feature", "properties": { "Facility ID": "450024", "City": "EL PASO", "State": "TX" }, "geometry": { "type": "Point", "coordinates": [ -106.436022, 31.771291 ] } },
{ "type": "Feature", "properties": { "Facility ID": "330028", "City": "STATEN ISLAND", "State": "NY" }, "geometry": { "type": "Point", "coordinates": [ -74.106693, 40.63551 ] } },
{ "type": "Feature", "properties": { "Facility ID": "290039", "City": "LAS VEGAS", "State": "NV" }, "geometry": { "type": "Point", "coordinates": [ -115.250795, 36.2156 ] } },
{ "type": "Feature", "properties": { "Facility ID": "250069", "City": "MERIDIAN", "State": "MS" }, "geometry": { "type": "Point", "coordinates": [ -88.697779, 32.370664 ] } },
{ "type": "Feature", "properties": { "Facility ID": "670087", "City": "CEDAR PARK", "State": "TX" }, "geometry": { "type": "Point", "coordinates": [ -97.820177, 30.523951 ] } },
{ "type": "Feature", "properties": { "Facility ID": "141318", "City": "MONMOUTH", "State": "IL" }, "geometry": { "type": "Point", "coordinates": [ -90.658986, 40.921291 ] } },
{ "type": "Feature", "properties": { "Facility ID": "350070", "City": "FARGO", "State": "ND" }, "geometry": { "type": "Point", "coordinates": [ -96.828106, 46.8325 ] } },
{ "type": "Feature", "properties": { "Facility ID": "141339", "City": "TAYLORVILLE", "State": "IL" }, "geometry": { "type": "Point", "coordinates": [ -89.293754, 39.553753 ] } },
{ "type": "Feature", "properties": { "Facility ID": "050017", "City": "SACRAMENTO", "State": "CA" }, "geometry": { "type": "Point", "coordinates": [ -121.452482, 38.569385 ] } },
{ "type": "Feature", "properties": { "Facility ID": "140019", "City": "SHELBYVILLE", "State": "IL" }, "geometry": { "type": "Point", "coordinates": [ -88.807113, 39.405801 ] } },
{ "type": "Feature", "properties": { "Facility ID": "290012", "City": "HENDERSON", "State": "NV" }, "geometry": { "type": "Point", "coordinates": [ -114.983192, 36.038829 ] } },
{ "type": "Feature", "properties": { "Facility ID": "154005", "City": "WEST LAFAYETTE", "State": "IN" }, "geometry": { "type": "Point", "coordinates": [ -86.892602, 40.459145 ] } },
{ "type": "Feature", "properties": { "Facility ID": "181321", "City": "MONTICELLO", "State": "KY" }, "geometry": { "type": "Point", "coordinates": [ -84.866821, 36.820046 ] } },
{ "type": "Feature", "properties": { "Facility ID": "451387", "City": "UVALDE", "State": "TX" }, "geometry": { "type": "Point", "coordinates": [ -99.768668, 29.215126 ] } },
{ "type": "Feature", "properties": { "Facility ID": "390139", "City": "BRYN MAWR", "State": "PA" }, "geometry": { "type": "Point", "coordinates": [ -75.320482, 40.018515 ] } },
{ "type": "Feature", "properties": { "Facility ID": "220111", "City": "BROCKTON", "State": "MA" }, "geometry": { "type": "Point", "coordinates": [ -71.065645, 42.09707 ] } },
{ "type": "Feature", "properties": { "Facility ID": "461301", "City": "FILLMORE", "State": "UT" }, "geometry": { "type": "Point", "coordinates": [ -112.339455, 38.954161 ] } },
{ "type": "Feature", "properties": { "Facility ID": "390050", "City": "PITTSBURGH", "State": "PA" }, "geometry": { "type": "Point", "coordinates": [ -80.003249, 40.456149 ] } },
{ "type": "Feature", "properties": { "Facility ID": "320005", "City": "FARMINGTON", "State": "NM" }, "geometry": { "type": "Point", "coordinates": [ -108.215501, 36.724323 ] } },
{ "type": "Feature", "properties": { "Facility ID": "061309", "City": "WRAY", "State": "CO" }, "geometry": { "type": "Point", "coordinates": [ -102.23466, 40.075405 ] } },
{ "type": "Feature", "properties": { "Facility ID": "110045", "City": "WINDER", "State": "GA" }, "geometry": { "type": "Point", "coordinates": [ -83.706706, 34.007701 ] } },
{ "type": "Feature", "properties": { "Facility ID": "260022", "City": "KIRKSVILLE", "State": "MO" }, "geometry": { "type": "Point", "coordinates": [ -92.590849, 40.192523 ] } },
{ "type": "Feature", "properties": { "Facility ID": "151310", "City": "WABASH", "State": "IN" }, "geometry": { "type": "Point", "coordinates": [ -85.829126, 40.81877 ] } },
{ "type": "Feature", "properties": { "Facility ID": "26002F", "City": "Fort Leonard Wood", "State": "MO" }, "geometry": { "type": "Point", "coordinates": [ -92.116491, 37.766471 ] } },
{ "type": "Feature", "properties": { "Facility ID": "190183", "City": "HOUMA", "State": "LA" }, "geometry": { "type": "Point", "coordinates": [ -90.687625, 29.571318 ] } },
{ "type": "Feature", "properties": { "Facility ID": "390048", "City": "LEWISTOWN", "State": "PA" }, "geometry": { "type": "Point", "coordinates": [ -77.567402, 40.617853 ] } },
{ "type": "Feature", "properties": { "Facility ID": "521318", "City": "OSCEOLA", "State": "WI" }, "geometry": { "type": "Point", "coordinates": [ -92.699804, 45.302115 ] } },
{ "type": "Feature", "properties": { "Facility ID": "500037", "City": "TOPPENISH", "State": "WA" }, "geometry": { "type": "Point", "coordinates": [ -120.316682, 46.37135 ] } },
{ "type": "Feature", "properties": { "Facility ID": "010011", "City": "BIRMINGHAM", "State": "AL" }, "geometry": { "type": "Point", "coordinates": [ -86.665182, 33.595351 ] } },
{ "type": "Feature", "properties": { "Facility ID": "170040", "City": "KANSAS CITY", "State": "KS" }, "geometry": { "type": "Point", "coordinates": [ -94.608229, 39.055395 ] } },
{ "type": "Feature", "properties": { "Facility ID": "320033", "City": "LOS ALAMOS", "State": "NM" }, "geometry": { "type": "Point", "coordinates": [ -106.319765, 35.882165 ] } },
{ "type": "Feature", "properties": { "Facility ID": "453310", "City": "AUSTIN", "State": "TX" }, "geometry": { "type": "Point", "coordinates": [ -97.704957, 30.302549 ] } },
{ "type": "Feature", "properties": { "Facility ID": "450871", "City": "AUSTIN", "State": "TX" }, "geometry": { "type": "Point", "coordinates": [ -97.795469, 30.271664 ] } },
{ "type": "Feature", "properties": { "Facility ID": "100069", "City": "TAMPA", "State": "FL" }, "geometry": { "type": "Point", "coordinates": [ -82.504954, 28.013102 ] } },
{ "type": "Feature", "properties": { "Facility ID": "304000", "City": "CONCORD", "State": "NH" }, "geometry": { "type": "Point", "coordinates": [ -71.543572, 43.193245 ] } },
{ "type": "Feature", "properties": { "Facility ID": "121303", "City": "KAUNAKAKAI", "State": "HI" }, "geometry": { "type": "Point", "coordinates": [ -157.017982, 21.09376 ] } },
{ "type": "Feature", "properties": { "Facility ID": "050335", "City": "SONORA", "State": "CA" }, "geometry": { "type": "Point", "coordinates": [ -120.369442, 37.976728 ] } },
{ "type": "Feature", "properties": { "Facility ID": "024001", "City": "ANCHORAGE", "State": "AK" }, "geometry": { "type": "Point", "coordinates": [ -149.834246, 61.20808 ] } },
{ "type": "Feature", "properties": { "Facility ID": "194096", "City": "ALEXANDRIA", "State": "LA" }, "geometry": { "type": "Point", "coordinates": [ -92.479261, 31.324607 ] } },
{ "type": "Feature", "properties": { "Facility ID": "524019", "City": "MARSHFIELD", "State": "WI" }, "geometry": { "type": "Point", "coordinates": [ -90.164903, 44.682063 ] } },
{ "type": "Feature", "properties": { "Facility ID": "230005", "City": "ADRIAN", "State": "MI" }, "geometry": { "type": "Point", "coordinates": [ -84.049555, 41.912713 ] } },
{ "type": "Feature", "properties": { "Facility ID": "040084", "City": "BENTON", "State": "AR" }, "geometry": { "type": "Point", "coordinates": [ -92.584405, 34.573552 ] } },
{ "type": "Feature", "properties": { "Facility ID": "154058", "City": "BREMEN", "State": "IN" }, "geometry": { "type": "Point", "coordinates": [ -86.149957, 41.4436 ] } },
{ "type": "Feature", "properties": { "Facility ID": "200018", "City": "PRESQUE ISLE", "State": "ME" }, "geometry": null },
{ "type": "Feature", "properties": { "Facility ID": "271338", "City": "HARDIN", "State": "MT" }, "geometry": { "type": "Point", "coordinates": [ -107.61701, 45.728856 ] } },
{ "type": "Feature", "properties": { "Facility ID": "11033F", "City": "Fort Gordon", "State": "GA" }, "geometry": { "type": "Point", "coordinates": [ -82.126064, 33.429403 ] } },
{ "type": "Feature", "properties": { "Facility ID": "050149", "City": "LOS ANGELES", "State": "CA" }, "geometry": { "type": "Point", "coordinates": [ -118.265363, 34.037212 ] } },
{ "type": "Feature", "properties": { "Facility ID": "100075", "City": "TAMPA", "State": "FL" }, "geometry": null },
{ "type": "Feature", "properties": { "Facility ID": "440151", "City": "MC MINNVILLE", "State": "TN" }, "geometry": { "type": "Point", "coordinates": [ -85.742339, 35.698694 ] } },
{ "type": "Feature", "properties": { "Facility ID": "670008", "City": "WEBSTER", "State": "TX" }, "geometry": { "type": "Point", "coordinates": [ -95.125785, 29.534902 ] } },
{ "type": "Feature", "properties": { "Facility ID": "050308", "City": "MOUNTAIN VIEW", "State": "CA" }, "geometry": { "type": "Point", "coordinates": [ -122.077933, 37.369341 ] } },
{ "type": "Feature", "properties": { "Facility ID": "054093", "City": "REDLANDS", "State": "CA" }, "geometry": { "type": "Point", "coordinates": [ -117.213308, 34.048329 ] } },
{ "type": "Feature", "properties": { "Facility ID": "050547", "City": "ELDRIDGE", "State": "CA" }, "geometry": { "type": "Point", "coordinates": [ -122.51691, 38.349027 ] } },
{ "type": "Feature", "properties": { "Facility ID": "430027", "City": "SIOUX FALLS", "State": "SD" }, "geometry": { "type": "Point", "coordinates": [ -96.743388, 43.536678 ] } },
{ "type": "Feature", "properties": { "Facility ID": "231308", "City": "MUNISING", "State": "MI" }, "geometry": { "type": "Point", "coordinates": [ -86.625716, 46.423849 ] } },
{ "type": "Feature", "properties": { "Facility ID": "190020", "City": "ZACHARY", "State": "LA" }, "geometry": { "type": "Point", "coordinates": [ -91.136747, 30.649957 ] } },
{ "type": "Feature", "properties": { "Facility ID": "171327", "City": "ELLSWORTH", "State": "KS" }, "geometry": { "type": "Point", "coordinates": [ -98.218892, 38.741969 ] } },
{ "type": "Feature", "properties": { "Facility ID": "450890", "City": "PLANO", "State": "TX" }, "geometry": { "type": "Point", "coordinates": [ -96.791185, 33.014361 ] } },
{ "type": "Feature", "properties": { "Facility ID": "340147", "City": "ROCKY MOUNT", "State": "NC" }, "geometry": { "type": "Point", "coordinates": [ -77.848919, 35.973443 ] } },
{ "type": "Feature", "properties": { "Facility ID": "280023", "City": "GRAND ISLAND", "State": "NE" }, "geometry": { "type": "Point", "coordinates": [ -98.370887, 40.924267 ] } },
{ "type": "Feature", "properties": { "Facility ID": "150183", "City": "BLOOMINGTON", "State": "IN" }, "geometry": { "type": "Point", "coordinates": [ -86.573323, 39.121202 ] } },
{ "type": "Feature", "properties": { "Facility ID": "530032", "City": "EVANSTON", "State": "WY" }, "geometry": { "type": "Point", "coordinates": [ -110.991336, 41.242214 ] } },
{ "type": "Feature", "properties": { "Facility ID": "051317", "City": "CLEARLAKE", "State": "CA" }, "geometry": null },
{ "type": "Feature", "properties": { "Facility ID": "161360", "City": "ORANGE CITY", "State": "IA" }, "geometry": { "type": "Point", "coordinates": [ -96.045734, 42.994878 ] } },
{ "type": "Feature", "properties": { "Facility ID": "451307", "City": "IRAAN", "State": "TX" }, "geometry": { "type": "Point", "coordinates": [ -101.906673, 30.914189 ] } },
{ "type": "Feature", "properties": { "Facility ID": "450064", "City": "ARLINGTON", "State": "TX" }, "geometry": { "type": "Point", "coordinates": [ -97.116086, 32.750126 ] } },
{ "type": "Feature", "properties": { "Facility ID": "50006F", "City": "Bremerton", "State": "WA" }, "geometry": { "type": "Point", "coordinates": [ -122.69294, 47.593571 ] } },
{ "type": "Feature", "properties": { "Facility ID": "041309", "City": "WALNUT RIDGE", "State": "AR" }, "geometry": { "type": "Point", "coordinates": [ -90.966982, 36.074701 ] } },
{ "type": "Feature", "properties": { "Facility ID": "054152", "City": "SANTA CRUZ", "State": "CA" }, "geometry": { "type": "Point", "coordinates": [ -121.994112, 36.983527 ] } },
{ "type": "Feature", "properties": { "Facility ID": "140113", "City": "URBANA", "State": "IL" }, "geometry": { "type": "Point", "coordinates": [ -88.227123, 40.117391 ] } },
{ "type": "Feature", "properties": { "Facility ID": "034021", "City": "PHOENIX", "State": "AZ" }, "geometry": { "type": "Point", "coordinates": [ -112.025414, 33.451333 ] } },
{ "type": "Feature", "properties": { "Facility ID": "050785", "City": "LOS ANGELES", "State": "CA" }, "geometry": { "type": "Point", "coordinates": [ -118.361983, 34.057352 ] } },
{ "type": "Feature", "properties": { "Facility ID": "454110", "City": "MIDLAND", "State": "TX" }, "geometry": { "type": "Point", "coordinates": [ -102.218938, 31.922278 ] } },
{ "type": "Feature", "properties": { "Facility ID": "143302", "City": "CHICAGO", "State": "IL" }, "geometry": { "type": "Point", "coordinates": [ -87.79499, 41.916766 ] } },
{ "type": "Feature", "properties": { "Facility ID": "450395", "City": "LIVINGSTON", "State": "TX" }, "geometry": { "type": "Point", "coordinates": [ -95.085743, 30.35777 ] } },
{ "type": "Feature", "properties": { "Facility ID": "450848", "City": "SUGAR LAND", "State": "TX" }, "geometry": { "type": "Point", "coordinates": [ -95.68791, 29.56408 ] } },
{ "type": "Feature", "properties": { "Facility ID": "104082", "City": "TITUSVILLE", "State": "FL" }, "geometry": null },
{ "type": "Feature", "properties": { "Facility ID": "100049", "City": "SEBRING", "State": "FL" }, "geometry": { "type": "Point", "coordinates": [ -81.433761, 27.465045 ] } },
{ "type": "Feature", "properties": { "Facility ID": "340113", "City": "CHARLOTTE", "State": "NC" }, "geometry": { "type": "Point", "coordinates": [ -80.839845, 35.204983 ] } },
{ "type": "Feature", "properties": { "Facility ID": "450352", "City": "GREENVILLE", "State": "TX" }, "geometry": null },
{ "type": "Feature", "properties": { "Facility ID": "111336", "City": "CLAYTON", "State": "GA" }, "geometry": { "type": "Point", "coordinates": [ -83.54423, 34.554075 ] } },
{ "type": "Feature", "properties": { "Facility ID": "150061", "City": "WASHINGTON", "State": "IN" }, "geometry": { "type": "Point", "coordinates": [ -87.160319, 38.658695 ] } },
{ "type": "Feature", "properties": { "Facility ID": "450651", "City": "PLANO", "State": "TX" }, "geometry": { "type": "Point", "coordinates": [ -96.76573, 33.019387 ] } },
{ "type": "Feature", "properties": { "Facility ID": "400112", "City": "CAROLINA", "State": "PR" }, "geometry": null },
{ "type": "Feature", "properties": { "Facility ID": "380071", "City": "MCMINNVILLE", "State": "OR" }, "geometry": { "type": "Point", "coordinates": [ -123.16523, 45.20031 ] } },
{ "type": "Feature", "properties": { "Facility ID": "150088", "City": "ANDERSON", "State": "IN" }, "geometry": { "type": "Point", "coordinates": [ -85.680467, 40.096257 ] } },
{ "type": "Feature", "properties": { "Facility ID": "010021", "City": "OZARK", "State": "AL" }, "geometry": { "type": "Point", "coordinates": [ -85.630966, 31.451345 ] } },
{ "type": "Feature", "properties": { "Facility ID": "213300", "City": "BALTIMORE", "State": "MD" }, "geometry": { "type": "Point", "coordinates": [ -76.653551, 39.362029 ] } },
{ "type": "Feature", "properties": { "Facility ID": "161373", "City": "MOUNT AYR", "State": "IA" }, "geometry": { "type": "Point", "coordinates": [ -94.223613, 40.71833 ] } },
{ "type": "Feature", "properties": { "Facility ID": "310005", "City": "FLEMINGTON", "State": "NJ" }, "geometry": { "type": "Point", "coordinates": [ -74.86041, 40.532524 ] } },
{ "type": "Feature", "properties": { "Facility ID": "450672", "City": "FORT WORTH", "State": "TX" }, "geometry": { "type": "Point", "coordinates": [ -97.343704, 32.735481 ] } },
{ "type": "Feature", "properties": { "Facility ID": "110064", "City": "COLUMBUS", "State": "GA" }, "geometry": { "type": "Point", "coordinates": [ -84.982008, 32.481728 ] } },
{ "type": "Feature", "properties": { "Facility ID": "520070", "City": "EAU CLAIRE", "State": "WI" }, "geometry": { "type": "Point", "coordinates": [ -91.51354, 44.812055 ] } },
{ "type": "Feature", "properties": { "Facility ID": "141343", "City": "ROBINSON", "State": "IL" }, "geometry": { "type": "Point", "coordinates": [ -87.748999, 39.013668 ] } },
{ "type": "Feature", "properties": { "Facility ID": "330191", "City": "GLENS FALLS", "State": "NY" }, "geometry": { "type": "Point", "coordinates": [ -73.644551, 43.308335 ] } },
{ "type": "Feature", "properties": { "Facility ID": "360055", "City": "WARREN", "State": "OH" }, "geometry": { "type": "Point", "coordinates": [ -80.798765, 41.236461 ] } },
{ "type": "Feature", "properties": { "Facility ID": "431310", "City": "FLANDREAU", "State": "SD" }, "geometry": { "type": "Point", "coordinates": [ -96.590989, 44.050568 ] } },
{ "type": "Feature", "properties": { "Facility ID": "161339", "City": "WAVERLY", "State": "IA" }, "geometry": { "type": "Point", "coordinates": [ -92.481802, 42.723668 ] } },
{ "type": "Feature", "properties": { "Facility ID": "504011", "City": "TUKWILA", "State": "WA" }, "geometry": { "type": "Point", "coordinates": [ -122.296947, 47.487994 ] } },
{ "type": "Feature", "properties": { "Facility ID": "371325", "City": "CORDELL", "State": "OK" }, "geometry": { "type": "Point", "coordinates": [ -98.987595, 35.302524 ] } },
{ "type": "Feature", "properties": { "Facility ID": "160033", "City": "DAVENPORT", "State": "IA" }, "geometry": { "type": "Point", "coordinates": [ -90.556958, 41.542837 ] } },
{ "type": "Feature", "properties": { "Facility ID": "451317", "City": "REFUGIO", "State": "TX" }, "geometry": { "type": "Point", "coordinates": [ -97.279439, 28.306487 ] } },
{ "type": "Feature", "properties": { "Facility ID": "450051", "City": "DALLAS", "State": "TX" }, "geometry": { "type": "Point", "coordinates": [ -96.823006, 32.761639 ] } },
{ "type": "Feature", "properties": { "Facility ID": "341328", "City": "MURPHY", "State": "NC" }, "geometry": { "type": "Point", "coordinates": [ -83.965424, 35.07316 ] } },
{ "type": "Feature", "properties": { "Facility ID": "050167", "City": "FRENCH CAMP", "State": "CA" }, "geometry": { "type": "Point", "coordinates": [ -121.282061, 37.886492 ] } },
{ "type": "Feature", "properties": { "Facility ID": "05015F", "City": "Fairfield", "State": "CA" }, "geometry": { "type": "Point", "coordinates": [ -121.960664, 38.267934 ] } },
{ "type": "Feature", "properties": { "Facility ID": "010109", "City": "CARROLLTON", "State": "AL" }, "geometry": { "type": "Point", "coordinates": [ -88.089673, 33.274807 ] } },
{ "type": "Feature", "properties": { "Facility ID": "400032", "City": "BAYAMON", "State": "PR" }, "geometry": null },
{ "type": "Feature", "properties": { "Facility ID": "161323", "City": "OSAGE", "State": "IA" }, "geometry": { "type": "Point", "coordinates": [ -92.809482, 43.289076 ] } },
{ "type": "Feature", "properties": { "Facility ID": "320074", "City": "ALBUQUERQUE", "State": "NM" }, "geometry": { "type": "Point", "coordinates": [ -106.675974, 35.207508 ] } },
{ "type": "Feature", "properties": { "Facility ID": "341317", "City": "DANBURY", "State": "NC" }, "geometry": null },
{ "type": "Feature", "properties": { "Facility ID": "310052", "City": "BRICK", "State": "NJ" }, "geometry": { "type": "Point", "coordinates": [ -74.129748, 40.078327 ] } },
{ "type": "Feature", "properties": { "Facility ID": "370183", "City": "HENRYETTA", "State": "OK" }, "geometry": { "type": "Point", "coordinates": [ -96.015496, 35.439738 ] } },
{ "type": "Feature", "properties": { "Facility ID": "450090", "City": "GAINESVILLE", "State": "TX" }, "geometry": { "type": "Point", "coordinates": [ -97.161976, 33.645356 ] } },
{ "type": "Feature", "properties": { "Facility ID": "454094", "City": "DALLAS", "State": "TX" }, "geometry": { "type": "Point", "coordinates": [ -96.772259, 32.913541 ] } },
{ "type": "Feature", "properties": { "Facility ID": "110230", "City": "JOHNS CREEK", "State": "GA" }, "geometry": { "type": "Point", "coordinates": [ -84.175187, 34.067466 ] } },
{ "type": "Feature", "properties": { "Facility ID": "250104", "City": "MERIDIAN", "State": "MS" }, "geometry": { "type": "Point", "coordinates": [ -88.699858, 32.370775 ] } },
{ "type": "Feature", "properties": { "Facility ID": "260061", "City": "NEVADA", "State": "MO" }, "geometry": { "type": "Point", "coordinates": [ -94.359703, 37.830534 ] } },
{ "type": "Feature", "properties": { "Facility ID": "170188", "City": "LEAWOOD", "State": "KS" }, "geometry": { "type": "Point", "coordinates": [ -94.628235, 38.927549 ] } },
{ "type": "Feature", "properties": { "Facility ID": "450788", "City": "CORPUS CHRISTI", "State": "TX" }, "geometry": { "type": "Point", "coordinates": [ -97.359284, 27.681644 ] } },
{ "type": "Feature", "properties": { "Facility ID": "140118", "City": "BLUE ISLAND", "State": "IL" }, "geometry": null },
{ "type": "Feature", "properties": { "Facility ID": "050616", "City": "CAMARILLO", "State": "CA" }, "geometry": { "type": "Point", "coordinates": [ -119.018306, 34.242965 ] } },
{ "type": "Feature", "properties": { "Facility ID": "301305", "City": "LEBANON", "State": "NH" }, "geometry": { "type": "Point", "coordinates": [ -72.264366, 43.640293 ] } },
{ "type": "Feature", "properties": { "Facility ID": "190300", "City": "NEW ORLEANS", "State": "LA" }, "geometry": { "type": "Point", "coordinates": [ -90.07688, 29.937371 ] } },
{ "type": "Feature", "properties": { "Facility ID": "471307", "City": "MIDDLEBURY", "State": "VT" }, "geometry": { "type": "Point", "coordinates": [ -73.169803, 43.99947 ] } },
{ "type": "Feature", "properties": { "Facility ID": "334066", "City": "ORANGEBURG", "State": "NY" }, "geometry": { "type": "Point", "coordinates": [ -73.96979, 41.046076 ] } },
{ "type": "Feature", "properties": { "Facility ID": "451334", "City": "WHEELER", "State": "TX" }, "geometry": { "type": "Point", "coordinates": [ -100.270803, 35.439363 ] } },
{ "type": "Feature", "properties": { "Facility ID": "340070", "City": "BURLINGTON", "State": "NC" }, "geometry": { "type": "Point", "coordinates": [ -79.502528, 36.063749 ] } },
{ "type": "Feature", "properties": { "Facility ID": "361325", "City": "GALION", "State": "OH" }, "geometry": { "type": "Point", "coordinates": [ -82.803296, 40.731143 ] } },
{ "type": "Feature", "properties": { "Facility ID": "321310", "City": "TAOS", "State": "NM" }, "geometry": { "type": "Point", "coordinates": [ -105.577458, 36.367397 ] } },
{ "type": "Feature", "properties": { "Facility ID": "400102", "City": "BAYAMON", "State": "PR" }, "geometry": null },
{ "type": "Feature", "properties": { "Facility ID": "390107", "City": "PITTSBURGH", "State": "PA" }, "geometry": { "type": "Point", "coordinates": [ -80.016518, 40.568235 ] } },
{ "type": "Feature", "properties": { "Facility ID": "390272", "City": "NORRISTOWN", "State": "PA" }, "geometry": { "type": "Point", "coordinates": [ -75.368684, 40.15643 ] } },
{ "type": "Feature", "properties": { "Facility ID": "050701", "City": "MURRIETA", "State": "CA" }, "geometry": { "type": "Point", "coordinates": [ -117.184346, 33.557832 ] } },
{ "type": "Feature", "properties": { "Facility ID": "361326", "City": "SEAMAN", "State": "OH" }, "geometry": { "type": "Point", "coordinates": [ -83.585612, 38.933848 ] } },
{ "type": "Feature", "properties": { "Facility ID": "490075", "City": "DANVILLE", "State": "VA" }, "geometry": { "type": "Point", "coordinates": [ -79.40481, 36.577072 ] } },
{ "type": "Feature", "properties": { "Facility ID": "340068", "City": "WHITEVILLE", "State": "NC" }, "geometry": { "type": "Point", "coordinates": [ -78.693644, 34.338657 ] } },
{ "type": "Feature", "properties": { "Facility ID": "030064", "City": "TUCSON", "State": "AZ" }, "geometry": { "type": "Point", "coordinates": [ -110.944092, 32.242362 ] } },
{ "type": "Feature", "properties": { "Facility ID": "490045", "City": "MANASSAS", "State": "VA" }, "geometry": { "type": "Point", "coordinates": [ -77.484936, 38.767458 ] } },
{ "type": "Feature", "properties": { "Facility ID": "261308", "City": "POTOSI", "State": "MO" }, "geometry": { "type": "Point", "coordinates": [ -90.773133, 37.92599 ] } },
{ "type": "Feature", "properties": { "Facility ID": "281347", "City": "OSMOND", "State": "NE" }, "geometry": null },
{ "type": "Feature", "properties": { "Facility ID": "390328", "City": "MONROEVILLE", "State": "PA" }, "geometry": { "type": "Point", "coordinates": [ -79.758458, 40.437014 ] } },
{ "type": "Feature", "properties": { "Facility ID": "310045", "City": "ENGLEWOOD", "State": "NJ" }, "geometry": { "type": "Point", "coordinates": [ -73.967993, 40.902855 ] } },
{ "type": "Feature", "properties": { "Facility ID": "670071", "City": "ARLINGTON", "State": "TX" }, "geometry": { "type": "Point", "coordinates": [ -97.11639, 32.748206 ] } },
{ "type": "Feature", "properties": { "Facility ID": "170104", "City": "SHAWNEE MISSION", "State": "KS" }, "geometry": { "type": "Point", "coordinates": [ -94.69204, 38.995137 ] } },
{ "type": "Feature", "properties": { "Facility ID": "400118", "City": "MANATI", "State": "PR" }, "geometry": null },
{ "type": "Feature", "properties": { "Facility ID": "180017", "City": "GLASGOW", "State": "KY" }, "geometry": { "type": "Point", "coordinates": [ -85.903862, 37.011566 ] } },
{ "type": "Feature", "properties": { "Facility ID": "050515", "City": "SAN DIEGO", "State": "CA" }, "geometry": { "type": "Point", "coordinates": [ -117.095859, 32.792973 ] } },
{ "type": "Feature", "properties": { "Facility ID": "430089", "City": "DAKOTA DUNES", "State": "SD" }, "geometry": { "type": "Point", "coordinates": [ -96.496816, 42.504753 ] } },
{ "type": "Feature", "properties": { "Facility ID": "450641", "City": "NOCONA", "State": "TX" }, "geometry": { "type": "Point", "coordinates": [ -97.731564, 33.777559 ] } },
{ "type": "Feature", "properties": { "Facility ID": "210055", "City": "LAUREL", "State": "MD" }, "geometry": { "type": "Point", "coordinates": [ -76.881591, 39.084742 ] } },
{ "type": "Feature", "properties": { "Facility ID": "330086", "City": "MOUNT VERNON", "State": "NY" }, "geometry": { "type": "Point", "coordinates": [ -73.840011, 40.912754 ] } },
{ "type": "Feature", "properties": { "Facility ID": "111327", "City": "ALMA", "State": "GA" }, "geometry": { "type": "Point", "coordinates": [ -82.459687, 31.53911 ] } },
{ "type": "Feature", "properties": { "Facility ID": "190114", "City": "HOMER", "State": "LA" }, "geometry": { "type": "Point", "coordinates": [ -93.062469, 32.794327 ] } },
{ "type": "Feature", "properties": { "Facility ID": "070033", "City": "DANBURY", "State": "CT" }, "geometry": { "type": "Point", "coordinates": [ -73.444339, 41.406776 ] } },
{ "type": "Feature", "properties": { "Facility ID": "230085", "City": "SOUTH HAVEN", "State": "MI" }, "geometry": { "type": "Point", "coordinates": [ -86.26413, 42.391252 ] } },
{ "type": "Feature", "properties": { "Facility ID": "344025", "City": "MORGANTON", "State": "NC" }, "geometry": { "type": "Point", "coordinates": [ -81.673732, 35.734104 ] } },
{ "type": "Feature", "properties": { "Facility ID": "060104", "City": "WESTMINSTER", "State": "CO" }, "geometry": { "type": "Point", "coordinates": [ -104.993671, 39.95581 ] } },
{ "type": "Feature", "properties": { "Facility ID": "240064", "City": "GRAND RAPIDS", "State": "MN" }, "geometry": { "type": "Point", "coordinates": [ -93.554716, 47.221039 ] } },
{ "type": "Feature", "properties": { "Facility ID": "340010", "City": "GOLDSBORO", "State": "NC" }, "geometry": { "type": "Point", "coordinates": [ -77.953342, 35.400831 ] } },
{ "type": "Feature", "properties": { "Facility ID": "281362", "City": "HOLDREGE", "State": "NE" }, "geometry": { "type": "Point", "coordinates": [ -99.382005, 40.447655 ] } },
{ "type": "Feature", "properties": { "Facility ID": "140040", "City": "GALESBURG", "State": "IL" }, "geometry": { "type": "Point", "coordinates": [ -90.366199, 40.955483 ] } },
{ "type": "Feature", "properties": { "Facility ID": "201313", "City": "PITTSFIELD", "State": "ME" }, "geometry": { "type": "Point", "coordinates": [ -69.371269, 44.790826 ] } },
{ "type": "Feature", "properties": { "Facility ID": "670119", "City": "HOUSTON", "State": "TX" }, "geometry": null },
{ "type": "Feature", "properties": { "Facility ID": "534004", "City": "CASPER", "State": "WY" }, "geometry": { "type": "Point", "coordinates": [ -106.295467, 42.835348 ] } },
{ "type": "Feature", "properties": { "Facility ID": "451323", "City": "LAMPASAS", "State": "TX" }, "geometry": { "type": "Point", "coordinates": [ -98.185644, 31.07233 ] } },
{ "type": "Feature", "properties": { "Facility ID": "240030", "City": "ALEXANDRIA", "State": "MN" }, "geometry": { "type": "Point", "coordinates": [ -95.37638, 45.872669 ] } },
{ "type": "Feature", "properties": { "Facility ID": "520189", "City": "KENOSHA", "State": "WI" }, "geometry": { "type": "Point", "coordinates": [ -87.933877, 42.567355 ] } },
{ "type": "Feature", "properties": { "Facility ID": "180024", "City": "LEBANON", "State": "KY" }, "geometry": { "type": "Point", "coordinates": [ -85.259397, 37.570325 ] } },
{ "type": "Feature", "properties": { "Facility ID": "260142", "City": "MARSHALL", "State": "MO" }, "geometry": null },
{ "type": "Feature", "properties": { "Facility ID": "050411", "City": "HARBOR CITY", "State": "CA" }, "geometry": { "type": "Point", "coordinates": [ -118.294366, 33.788623 ] } },
{ "type": "Feature", "properties": { "Facility ID": "360355", "City": "SPRINGFIELD", "State": "OH" }, "geometry": { "type": "Point", "coordinates": [ -83.812195, 39.924716 ] } },
{ "type": "Feature", "properties": { "Facility ID": "131305", "City": "SALMON", "State": "ID" }, "geometry": { "type": "Point", "coordinates": [ -113.890918, 45.173311 ] } },
{ "type": "Feature", "properties": { "Facility ID": "440018", "City": "ELIZABETHTON", "State": "TN" }, "geometry": { "type": "Point", "coordinates": [ -82.249623, 36.343941 ] } },
{ "type": "Feature", "properties": { "Facility ID": "371311", "City": "WAURIKA", "State": "OK" }, "geometry": null },
{ "type": "Feature", "properties": { "Facility ID": "314001", "City": "SUMMIT", "State": "NJ" }, "geometry": { "type": "Point", "coordinates": [ -74.361132, 40.714446 ] } },
{ "type": "Feature", "properties": { "Facility ID": "490020", "City": "HOPEWELL", "State": "VA" }, "geometry": { "type": "Point", "coordinates": [ -77.291491, 37.307065 ] } },
{ "type": "Feature", "properties": { "Facility ID": "450154", "City": "DEL RIO", "State": "TX" }, "geometry": { "type": "Point", "coordinates": [ -100.893034, 29.374425 ] } },
{ "type": "Feature", "properties": { "Facility ID": "080006", "City": "SEAFORD", "State": "DE" }, "geometry": { "type": "Point", "coordinates": [ -75.605325, 38.642332 ] } },
{ "type": "Feature", "properties": { "Facility ID": "140158", "City": "CHICAGO", "State": "IL" }, "geometry": { "type": "Point", "coordinates": [ -87.623583, 41.847053 ] } },
{ "type": "Feature", "properties": { "Facility ID": "370001", "City": "TULSA", "State": "OK" }, "geometry": { "type": "Point", "coordinates": [ -95.967141, 36.147164 ] } },
{ "type": "Feature", "properties": { "Facility ID": "450730", "City": "CARROLLTON", "State": "TX" }, "geometry": { "type": "Point", "coordinates": [ -96.88395, 33.028966 ] } },
{ "type": "Feature", "properties": { "Facility ID": "451338", "City": "VAN HORN", "State": "TX" }, "geometry": { "type": "Point", "coordinates": [ -104.828388, 31.049669 ] } },
{ "type": "Feature", "properties": { "Facility ID": "241304", "City": "WHEATON", "State": "MN" }, "geometry": { "type": "Point", "coordinates": [ -96.500504, 45.80901 ] } },
{ "type": "Feature", "properties": { "Facility ID": "521308", "City": "AMERY", "State": "WI" }, "geometry": { "type": "Point", "coordinates": [ -92.36067, 45.295946 ] } },
{ "type": "Feature", "properties": { "Facility ID": "251304", "City": "CHARLESTON", "State": "MS" }, "geometry": { "type": "Point", "coordinates": [ -90.058165, 34.005079 ] } },
{ "type": "Feature", "properties": { "Facility ID": "210029", "City": "BALTIMORE", "State": "MD" }, "geometry": { "type": "Point", "coordinates": [ -76.552134, 39.287285 ] } },
{ "type": "Feature", "properties": { "Facility ID": "140002", "City": "ALTON", "State": "IL" }, "geometry": null },
{ "type": "Feature", "properties": { "Facility ID": "060028", "City": "DENVER", "State": "CO" }, "geometry": { "type": "Point", "coordinates": [ -104.972135, 39.745722 ] } },
{ "type": "Feature", "properties": { "Facility ID": "394026", "City": "TORRANCE", "State": "PA" }, "geometry": { "type": "Point", "coordinates": [ -79.238368, 40.415289 ] } },
{ "type": "Feature", "properties": { "Facility ID": "180141", "City": "LOUISVILLE", "State": "KY" }, "geometry": { "type": "Point", "coordinates": [ -85.74507, 38.248446 ] } },
{ "type": "Feature", "properties": { "Facility ID": "330246", "City": "PORT JEFFERSON", "State": "NY" }, "geometry": { "type": "Point", "coordinates": [ -73.059832, 40.947392 ] } },
{ "type": "Feature", "properties": { "Facility ID": "190065", "City": "BATON ROUGE", "State": "LA" }, "geometry": { "type": "Point", "coordinates": [ -91.154638, 30.450336 ] } },
{ "type": "Feature", "properties": { "Facility ID": "380007", "City": "PORTLAND", "State": "OR" }, "geometry": { "type": "Point", "coordinates": [ -122.669445, 45.54405 ] } },
{ "type": "Feature", "properties": { "Facility ID": "240100", "City": "BEMIDJI", "State": "MN" }, "geometry": { "type": "Point", "coordinates": [ -94.898125, 47.505009 ] } },
{ "type": "Feature", "properties": { "Facility ID": "340183", "City": "HUNTERSVILLE", "State": "NC" }, "geometry": { "type": "Point", "coordinates": [ -80.860744, 35.407899 ] } },
{ "type": "Feature", "properties": { "Facility ID": "170197", "City": "ANDOVER", "State": "KS" }, "geometry": { "type": "Point", "coordinates": [ -97.14648, 37.72324 ] } },
{ "type": "Feature", "properties": { "Facility ID": "140185", "City": "BELLEVILLE", "State": "IL" }, "geometry": { "type": "Point", "coordinates": [ -90.021168, 38.550533 ] } },
{ "type": "Feature", "properties": { "Facility ID": "320084", "City": "PORTALES", "State": "NM" }, "geometry": { "type": "Point", "coordinates": [ -103.368199, 34.165665 ] } },
{ "type": "Feature", "properties": { "Facility ID": "521305", "City": "SPARTA", "State": "WI" }, "geometry": { "type": "Point", "coordinates": [ -90.81516, 43.944395 ] } },
{ "type": "Feature", "properties": { "Facility ID": "440053", "City": "MURFREESBORO", "State": "TN" }, "geometry": { "type": "Point", "coordinates": [ -86.424241, 35.85864 ] } },
{ "type": "Feature", "properties": { "Facility ID": "061315", "City": "YUMA", "State": "CO" }, "geometry": { "type": "Point", "coordinates": [ -102.736654, 40.118445 ] } },
{ "type": "Feature", "properties": { "Facility ID": "100140", "City": "FERNANDINA BEACH", "State": "FL" }, "geometry": { "type": "Point", "coordinates": [ -81.449462, 30.653028 ] } },
{ "type": "Feature", "properties": { "Facility ID": "351321", "City": "WISHEK", "State": "ND" }, "geometry": { "type": "Point", "coordinates": [ -99.551538, 46.255123 ] } },
{ "type": "Feature", "properties": { "Facility ID": "431323", "City": "CUSTER", "State": "SD" }, "geometry": { "type": "Point", "coordinates": [ -103.591173, 43.772816 ] } },
{ "type": "Feature", "properties": { "Facility ID": "501316", "City": "GOLDENDALE", "State": "WA" }, "geometry": { "type": "Point", "coordinates": [ -120.812299, 45.820239 ] } },
{ "type": "Feature", "properties": { "Facility ID": "360109", "City": "COSHOCTON", "State": "OH" }, "geometry": { "type": "Point", "coordinates": [ -81.847577, 40.270442 ] } },
{ "type": "Feature", "properties": { "Facility ID": "161308", "City": "HAMPTON", "State": "IA" }, "geometry": { "type": "Point", "coordinates": [ -93.186763, 42.741407 ] } },
{ "type": "Feature", "properties": { "Facility ID": "250043", "City": "PHILADELPHIA", "State": "MS" }, "geometry": { "type": "Point", "coordinates": [ -89.105415, 32.757816 ] } },
{ "type": "Feature", "properties": { "Facility ID": "281329", "City": "O' NEILL", "State": "NE" }, "geometry": { "type": "Point", "coordinates": [ -98.651118, 42.460338 ] } },
{ "type": "Feature", "properties": { "Facility ID": "100223", "City": "FORT WALTON BEACH", "State": "FL" }, "geometry": { "type": "Point", "coordinates": [ -86.632069, 30.454676 ] } },
{ "type": "Feature", "properties": { "Facility ID": "334015", "City": "ORANGEBURG", "State": "NY" }, "geometry": { "type": "Point", "coordinates": [ -73.969781, 41.044479 ] } },
{ "type": "Feature", "properties": { "Facility ID": "521323", "City": "NEILLSVILLE", "State": "WI" }, "geometry": { "type": "Point", "coordinates": [ -90.606909, 44.557046 ] } },
{ "type": "Feature", "properties": { "Facility ID": "110032", "City": "TOCCOA", "State": "GA" }, "geometry": { "type": "Point", "coordinates": [ -83.347172, 34.59302 ] } },
{ "type": "Feature", "properties": { "Facility ID": "184009", "City": "LEXINGTON", "State": "KY" }, "geometry": { "type": "Point", "coordinates": [ -84.44244, 38.005927 ] } },
{ "type": "Feature", "properties": { "Facility ID": "271345", "City": "LEWISTOWN", "State": "MT" }, "geometry": { "type": "Point", "coordinates": [ -109.442243, 47.058464 ] } },
{ "type": "Feature", "properties": { "Facility ID": "050082", "City": "OXNARD", "State": "CA" }, "geometry": { "type": "Point", "coordinates": [ -119.158351, 34.216555 ] } },
{ "type": "Feature", "properties": { "Facility ID": "450143", "City": "SMITHVILLE", "State": "TX" }, "geometry": null },
{ "type": "Feature", "properties": { "Facility ID": "360148", "City": "MILLERSBURG", "State": "OH" }, "geometry": { "type": "Point", "coordinates": [ -81.920492, 40.56432 ] } },
{ "type": "Feature", "properties": { "Facility ID": "190314", "City": "KENTWOOD", "State": "LA" }, "geometry": { "type": "Point", "coordinates": [ -90.519252, 30.936752 ] } },
{ "type": "Feature", "properties": { "Facility ID": "050641", "City": "LOS ANGELES", "State": "CA" }, "geometry": { "type": "Point", "coordinates": [ -118.184285, 34.02393 ] } },
{ "type": "Feature", "properties": { "Facility ID": "140211", "City": "GENEVA", "State": "IL" }, "geometry": { "type": "Point", "coordinates": [ -88.340414, 41.886345 ] } },
{ "type": "Feature", "properties": { "Facility ID": "030085", "City": "TUCSON", "State": "AZ" }, "geometry": { "type": "Point", "coordinates": [ -111.012054, 32.319581 ] } },
{ "type": "Feature", "properties": { "Facility ID": "204006", "City": "BANGOR", "State": "ME" }, "geometry": { "type": "Point", "coordinates": [ -68.762304, 44.819969 ] } },
{ "type": "Feature", "properties": { "Facility ID": "500119", "City": "SPOKANE", "State": "WA" }, "geometry": { "type": "Point", "coordinates": [ -117.235868, 47.671647 ] } },
{ "type": "Feature", "properties": { "Facility ID": "150112", "City": "COLUMBUS", "State": "IN" }, "geometry": { "type": "Point", "coordinates": [ -85.896854, 39.215872 ] } },
{ "type": "Feature", "properties": { "Facility ID": "130028", "City": "POCATELLO", "State": "ID" }, "geometry": { "type": "Point", "coordinates": [ -112.4189, 42.872621 ] } },
{ "type": "Feature", "properties": { "Facility ID": "100181", "City": "SOUTH MIAMI", "State": "FL" }, "geometry": { "type": "Point", "coordinates": [ -80.293469, 25.705493 ] } },
{ "type": "Feature", "properties": { "Facility ID": "390025", "City": "PHILADELPHIA", "State": "PA" }, "geometry": null },
{ "type": "Feature", "properties": { "Facility ID": "370049", "City": "STILLWATER", "State": "OK" }, "geometry": null },
{ "type": "Feature", "properties": { "Facility ID": "521337", "City": "SAINT CROIX FALLS", "State": "WI" }, "geometry": { "type": "Point", "coordinates": [ -92.642218, 45.409134 ] } },
{ "type": "Feature", "properties": { "Facility ID": "230254", "City": "ROCHESTER", "State": "MI" }, "geometry": { "type": "Point", "coordinates": [ -83.149228, 42.680882 ] } },
{ "type": "Feature", "properties": { "Facility ID": "454130", "City": "PLANO", "State": "TX" }, "geometry": null },
{ "type": "Feature", "properties": { "Facility ID": "150008", "City": "EAST CHICAGO", "State": "IN" }, "geometry": { "type": "Point", "coordinates": [ -87.448542, 41.634064 ] } },
{ "type": "Feature", "properties": { "Facility ID": "054145", "City": "SAN DIEGO", "State": "CA" }, "geometry": { "type": "Point", "coordinates": [ -117.15529, 32.794899 ] } },
{ "type": "Feature", "properties": { "Facility ID": "330393", "City": "STONY BROOK", "State": "NY" }, "geometry": null },
{ "type": "Feature", "properties": { "Facility ID": "250034", "City": "OXFORD", "State": "MS" }, "geometry": { "type": "Point", "coordinates": [ -89.5212, 34.346609 ] } },
{ "type": "Feature", "properties": { "Facility ID": "500003", "City": "MOUNT VERNON", "State": "WA" }, "geometry": { "type": "Point", "coordinates": [ -122.324335, 48.417422 ] } },
{ "type": "Feature", "properties": { "Facility ID": "093300", "City": "WASHINGTON", "State": "DC" }, "geometry": { "type": "Point", "coordinates": [ -77.013878, 38.926273 ] } },
{ "type": "Feature", "properties": { "Facility ID": "340075", "City": "MORGANTON", "State": "NC" }, "geometry": { "type": "Point", "coordinates": [ -81.658223, 35.723793 ] } },
{ "type": "Feature", "properties": { "Facility ID": "030122", "City": "GILBERT", "State": "AZ" }, "geometry": { "type": "Point", "coordinates": [ -111.719634, 33.384225 ] } },
{ "type": "Feature", "properties": { "Facility ID": "110100", "City": "LOUISVILLE", "State": "GA" }, "geometry": { "type": "Point", "coordinates": [ -82.404384, 33.00976 ] } },
{ "type": "Feature", "properties": { "Facility ID": "050226", "City": "ANAHEIM", "State": "CA" }, "geometry": { "type": "Point", "coordinates": [ -117.933934, 33.847138 ] } },
{ "type": "Feature", "properties": { "Facility ID": "340003", "City": "MOUNT AIRY", "State": "NC" }, "geometry": { "type": "Point", "coordinates": [ -80.611181, 36.488418 ] } },
{ "type": "Feature", "properties": { "Facility ID": "120014", "City": "LIHUE", "State": "HI" }, "geometry": { "type": "Point", "coordinates": [ -159.366198, 21.987043 ] } },
{ "type": "Feature", "properties": { "Facility ID": "393304", "City": "PITTSBURGH", "State": "PA" }, "geometry": { "type": "Point", "coordinates": [ -79.937642, 40.464637 ] } },
{ "type": "Feature", "properties": { "Facility ID": "170146", "City": "KANSAS CITY", "State": "KS" }, "geometry": { "type": "Point", "coordinates": [ -94.786329, 39.128582 ] } },
{ "type": "Feature", "properties": { "Facility ID": "320017", "City": "ALBUQUERQUE", "State": "NM" }, "geometry": { "type": "Point", "coordinates": [ -106.591037, 35.131005 ] } },
{ "type": "Feature", "properties": { "Facility ID": "100118", "City": "PALM COAST", "State": "FL" }, "geometry": { "type": "Point", "coordinates": [ -81.190089, 29.478987 ] } },
{ "type": "Feature", "properties": { "Facility ID": "031302", "City": "WILLCOX", "State": "AZ" }, "geometry": { "type": "Point", "coordinates": [ -109.837613, 32.264268 ] } },
{ "type": "Feature", "properties": { "Facility ID": "171370", "City": "GOODLAND", "State": "KS" }, "geometry": { "type": "Point", "coordinates": [ -101.713256, 39.35759 ] } },
{ "type": "Feature", "properties": { "Facility ID": "380029", "City": "SILVERTON", "State": "OR" }, "geometry": { "type": "Point", "coordinates": [ -122.790746, 45.004564 ] } },
{ "type": "Feature", "properties": { "Facility ID": "220030", "City": "PALMER", "State": "MA" }, "geometry": { "type": "Point", "coordinates": [ -72.341031, 42.168727 ] } },
{ "type": "Feature", "properties": { "Facility ID": "440197", "City": "NASHVILLE", "State": "TN" }, "geometry": { "type": "Point", "coordinates": [ -86.723814, 36.077872 ] } },
{ "type": "Feature", "properties": { "Facility ID": "330221", "City": "BROOKLYN", "State": "NY" }, "geometry": { "type": "Point", "coordinates": [ -73.917648, 40.704699 ] } },
{ "type": "Feature", "properties": { "Facility ID": "361304", "City": "GREENFIELD", "State": "OH" }, "geometry": { "type": "Point", "coordinates": [ -83.388008, 39.349315 ] } },
{ "type": "Feature", "properties": { "Facility ID": "230197", "City": "GRAND BLANC", "State": "MI" }, "geometry": null },
{ "type": "Feature", "properties": { "Facility ID": "340030", "City": "DURHAM", "State": "NC" }, "geometry": null },
{ "type": "Feature", "properties": { "Facility ID": "524038", "City": "GREEN BAY", "State": "WI" }, "geometry": { "type": "Point", "coordinates": [ -88.017432, 44.483752 ] } },
{ "type": "Feature", "properties": { "Facility ID": "101301", "City": "LIVE OAK", "State": "FL" }, "geometry": null },
{ "type": "Feature", "properties": { "Facility ID": "360078", "City": "RAVENNA", "State": "OH" }, "geometry": { "type": "Point", "coordinates": [ -81.245887, 41.176723 ] } },
{ "type": "Feature", "properties": { "Facility ID": "260190", "City": "LEES SUMMIT", "State": "MO" }, "geometry": { "type": "Point", "coordinates": [ -94.332151, 38.902285 ] } },
{ "type": "Feature", "properties": { "Facility ID": "291308", "City": "WINNEMUCCA", "State": "NV" }, "geometry": { "type": "Point", "coordinates": [ -117.728534, 40.971581 ] } },
{ "type": "Feature", "properties": { "Facility ID": "361310", "City": "WILLARD", "State": "OH" }, "geometry": { "type": "Point", "coordinates": [ -82.724, 41.048589 ] } },
{ "type": "Feature", "properties": { "Facility ID": "420004", "City": "CHARLESTON", "State": "SC" }, "geometry": { "type": "Point", "coordinates": [ -79.946559, 32.7854 ] } },
{ "type": "Feature", "properties": { "Facility ID": "191302", "City": "BREAUX BRIDGE", "State": "LA" }, "geometry": { "type": "Point", "coordinates": [ -91.890553, 30.282445 ] } },
{ "type": "Feature", "properties": { "Facility ID": "531313", "City": "AFTON", "State": "WY" }, "geometry": { "type": "Point", "coordinates": [ -110.931461, 42.71725 ] } },
{ "type": "Feature", "properties": { "Facility ID": "370234", "City": "OKLAHOMA CITY", "State": "OK" }, "geometry": { "type": "Point", "coordinates": [ -97.426999, 35.390255 ] } },
{ "type": "Feature", "properties": { "Facility ID": "240020", "City": "CAMBRIDGE", "State": "MN" }, "geometry": { "type": "Point", "coordinates": [ -93.229319, 45.56657 ] } },
{ "type": "Feature", "properties": { "Facility ID": "390220", "City": "WEST GROVE", "State": "PA" }, "geometry": { "type": "Point", "coordinates": [ -75.887918, 39.822744 ] } },
{ "type": "Feature", "properties": { "Facility ID": "180128", "City": "LOUISA", "State": "KY" }, "geometry": { "type": "Point", "coordinates": [ -82.60474, 38.0933 ] } },
{ "type": "Feature", "properties": { "Facility ID": "241321", "City": "GRACEVILLE", "State": "MN" }, "geometry": { "type": "Point", "coordinates": [ -96.433452, 45.56241 ] } },
{ "type": "Feature", "properties": { "Facility ID": "131316", "City": "MONTPELIER", "State": "ID" }, "geometry": { "type": "Point", "coordinates": [ -111.300847, 42.316242 ] } },
{ "type": "Feature", "properties": { "Facility ID": "110192", "City": "SNELLVILLE", "State": "GA" }, "geometry": { "type": "Point", "coordinates": [ -84.019645, 33.877259 ] } },
{ "type": "Feature", "properties": { "Facility ID": "261332", "City": "CARROLLTON", "State": "MO" }, "geometry": { "type": "Point", "coordinates": [ -93.494218, 39.376161 ] } },
{ "type": "Feature", "properties": { "Facility ID": "390057", "City": "SELLERSVILLE", "State": "PA" }, "geometry": { "type": "Point", "coordinates": [ -75.324169, 40.362567 ] } },
{ "type": "Feature", "properties": { "Facility ID": "241380", "City": "PARK RAPIDS", "State": "MN" }, "geometry": { "type": "Point", "coordinates": [ -95.061504, 46.9157 ] } },
{ "type": "Feature", "properties": { "Facility ID": "171315", "City": "SENECA", "State": "KS" }, "geometry": { "type": "Point", "coordinates": [ -96.07789, 39.837849 ] } },
{ "type": "Feature", "properties": { "Facility ID": "360003", "City": "CINCINNATI", "State": "OH" }, "geometry": { "type": "Point", "coordinates": [ -84.502562, 39.136728 ] } },
{ "type": "Feature", "properties": { "Facility ID": "010087", "City": "MOBILE", "State": "AL" }, "geometry": { "type": "Point", "coordinates": [ -88.099441, 30.708121 ] } },
{ "type": "Feature", "properties": { "Facility ID": "294013", "City": "LAS VEGAS", "State": "NV" }, "geometry": { "type": "Point", "coordinates": [ -115.136945, 36.130446 ] } },
{ "type": "Feature", "properties": { "Facility ID": "450447", "City": "CORSICANA", "State": "TX" }, "geometry": { "type": "Point", "coordinates": [ -96.503582, 32.085083 ] } },
{ "type": "Feature", "properties": { "Facility ID": "220065", "City": "WESTFIELD", "State": "MA" }, "geometry": { "type": "Point", "coordinates": [ -72.760397, 42.117789 ] } },
{ "type": "Feature", "properties": { "Facility ID": "141307", "City": "PINCKNEYVILLE", "State": "IL" }, "geometry": { "type": "Point", "coordinates": [ -89.368631, 38.08023 ] } },
{ "type": "Feature", "properties": { "Facility ID": "154020", "City": "MERRILLVILLE", "State": "IN" }, "geometry": { "type": "Point", "coordinates": [ -87.364921, 41.46219 ] } },
{ "type": "Feature", "properties": { "Facility ID": "520076", "City": "BEAVER DAM", "State": "WI" }, "geometry": { "type": "Point", "coordinates": [ -88.828197, 43.448477 ] } },
{ "type": "Feature", "properties": { "Facility ID": "330239", "City": "JAMESTOWN", "State": "NY" }, "geometry": { "type": "Point", "coordinates": [ -79.23295, 42.091237 ] } },
{ "type": "Feature", "properties": { "Facility ID": "444005", "City": "MARTIN", "State": "TN" }, "geometry": { "type": "Point", "coordinates": [ -88.871534, 36.337537 ] } },
{ "type": "Feature", "properties": { "Facility ID": "400010", "City": "CASTANER", "State": "PR" }, "geometry": null },
{ "type": "Feature", "properties": { "Facility ID": "070010", "City": "BRIDGEPORT", "State": "CT" }, "geometry": { "type": "Point", "coordinates": [ -73.16608, 41.188776 ] } },
{ "type": "Feature", "properties": { "Facility ID": "144021", "City": "SPRINGFIELD", "State": "IL" }, "geometry": { "type": "Point", "coordinates": [ -89.642409, 39.728305 ] } },
{ "type": "Feature", "properties": { "Facility ID": "440001", "City": "ERWIN", "State": "TN" }, "geometry": { "type": "Point", "coordinates": [ -82.445621, 36.121365 ] } },
{ "type": "Feature", "properties": { "Facility ID": "060071", "City": "DELTA", "State": "CO" }, "geometry": { "type": "Point", "coordinates": [ -108.047515, 38.743166 ] } },
{ "type": "Feature", "properties": { "Facility ID": "190208", "City": "LAKE PROVIDENCE", "State": "LA" }, "geometry": { "type": "Point", "coordinates": [ -91.171656, 32.811076 ] } },
{ "type": "Feature", "properties": { "Facility ID": "100019", "City": "MELBOURNE", "State": "FL" }, "geometry": { "type": "Point", "coordinates": [ -80.613523, 28.08691 ] } },
{ "type": "Feature", "properties": { "Facility ID": "360020", "City": "AKRON", "State": "OH" }, "geometry": { "type": "Point", "coordinates": [ -81.500069, 41.078335 ] } },
{ "type": "Feature", "properties": { "Facility ID": "050245", "City": "COLTON", "State": "CA" }, "geometry": { "type": "Point", "coordinates": [ -117.352833, 34.072884 ] } },
{ "type": "Feature", "properties": { "Facility ID": "010046", "City": "GADSDEN", "State": "AL" }, "geometry": { "type": "Point", "coordinates": [ -86.004086, 34.003811 ] } },
{ "type": "Feature", "properties": { "Facility ID": "521340", "City": "MENOMONIE", "State": "WI" }, "geometry": { "type": "Point", "coordinates": [ -91.900468, 44.882566 ] } },
{ "type": "Feature", "properties": { "Facility ID": "451367", "City": "PITTSBURG", "State": "TX" }, "geometry": { "type": "Point", "coordinates": [ -94.962966, 33.02843 ] } },
{ "type": "Feature", "properties": { "Facility ID": "100275", "City": "WELLINGTON", "State": "FL" }, "geometry": { "type": "Point", "coordinates": [ -80.204858, 26.650806 ] } },
{ "type": "Feature", "properties": { "Facility ID": "100088", "City": "JACKSONVILLE", "State": "FL" }, "geometry": { "type": "Point", "coordinates": [ -81.663609, 30.316284 ] } },
{ "type": "Feature", "properties": { "Facility ID": "451301", "City": "BIG LAKE", "State": "TX" }, "geometry": { "type": "Point", "coordinates": [ -101.461587, 31.201651 ] } },
{ "type": "Feature", "properties": { "Facility ID": "314020", "City": "CEDAR GROVE", "State": "NJ" }, "geometry": { "type": "Point", "coordinates": [ -74.233594, 40.851205 ] } },
{ "type": "Feature", "properties": { "Facility ID": "371306", "City": "MARIETTA", "State": "OK" }, "geometry": { "type": "Point", "coordinates": [ -97.13108, 33.942481 ] } },
{ "type": "Feature", "properties": { "Facility ID": "110006", "City": "ATHENS", "State": "GA" }, "geometry": { "type": "Point", "coordinates": [ -83.404467, 33.945929 ] } },
{ "type": "Feature", "properties": { "Facility ID": "041331", "City": "GRAVETTE", "State": "AR" }, "geometry": { "type": "Point", "coordinates": [ -94.45987, 36.408563 ] } },
{ "type": "Feature", "properties": { "Facility ID": "160058", "City": "IOWA CITY", "State": "IA" }, "geometry": { "type": "Point", "coordinates": [ -91.550759, 41.661203 ] } },
{ "type": "Feature", "properties": { "Facility ID": "334003", "City": "OGDENSBURG", "State": "NY" }, "geometry": null },
{ "type": "Feature", "properties": { "Facility ID": "181317", "City": "BURKESVILLE", "State": "KY" }, "geometry": { "type": "Point", "coordinates": [ -85.37244, 36.796868 ] } },
{ "type": "Feature", "properties": { "Facility ID": "390114", "City": "PITTSBURGH", "State": "PA" }, "geometry": { "type": "Point", "coordinates": [ -79.959546, 40.437077 ] } },
{ "type": "Feature", "properties": { "Facility ID": "460058", "City": "RIVERTON", "State": "UT" }, "geometry": { "type": "Point", "coordinates": [ -111.979725, 40.522238 ] } },
{ "type": "Feature", "properties": { "Facility ID": "161318", "City": "WAUKON", "State": "IA" }, "geometry": { "type": "Point", "coordinates": [ -91.474446, 43.268092 ] } },
{ "type": "Feature", "properties": { "Facility ID": "370106", "City": "OKLAHOMA CITY", "State": "OK" }, "geometry": { "type": "Point", "coordinates": [ -97.530196, 35.422535 ] } },
{ "type": "Feature", "properties": { "Facility ID": "161313", "City": "DEWITT", "State": "IA" },